stop_id,stop_code,stop_name,stop_desc,stop_lat,stop_lon,zone_id,stop_url,location_type,parent_station,stop_timezone,wheelchair_boarding
STOPAREA:00070,,"SUPER ANTIBES - ANTIBES","",0.0,0.0,,,1,,,
STOPAREA:00531,,"NICE - SNCF - NICE","",43.703441,7.260287,,,1,,,
STOPAREA:00532,,"NICE-NORD - NICE","",43.72608,7.255873,,,1,,,
STOPAREA:00533,,"MAETERLINCK - NICE","",43.688088,7.296205,,,1,,,
STOPAREA:00536,,"VILLEFRANCHE - VILLEFRANCHE-SU","",43.71733,7.33419,,,1,,,
STOPAREA:00537,,"BEAULIEU - BEAULIEU/MER","",43.703358,7.326582,,,1,,,
STOPAREA:00538,,"EZE-sur-MER - EZE","",43.724465,7.38173,,,1,,,
STOPAREA:00539,,"CAP AIL 1 - CAP D'AIL","",43.721916,7.398454,,,1,,,
STOPAREA:00541,,"CAP AIL 2 - CAP D'AIL","",43.724846,7.401488,,,1,,,
STOPAREA:00543,,"ROQUEBRUNE - ROQUEBRUNE - CA","",43.765641,7.487283,,,1,,,
STOPAREA:00544,,"CARNOLES - ROQUEBRUNE - CA","",43.762239,7.462546,,,1,,,
STOPAREA:00548,,"ROQUEBRUNE / A8 - ROQUEBRUNE - CA","",43.764698,7.487405,,,1,,,
STOPAREA:00549,,"MENTON /A8 - MENTON","",43.766176,7.487807,,,1,,,
STOPAREA:00551,,"LE CANNET / A8 - LE CANNET","",43.570953,7.014468,,,1,,,
STOPAREA:00552,,"CANNES / A8 - CANNES","",43.555213,7.016864,,,1,,,
STOPAREA:00557,,"VILLENEUVE-LOUBET / Direct - VILLENEUVE-LBT","",43.638509,7.133453,,,1,,,
STOPAREA:00558,,"BIOT / Direct - BIOT","",43.611442,7.126038,,,1,,,
STOPAREA:00559,,"ANTIBES / Direct - ANTIBES","",43.584465,7.118152,,,1,,,
STOPAREA:00750,,"AERO ARENAS - NICE","",0.0,0.0,,,1,,,
STOPAREA:00756,,"ST LAURENT DU VAR - S.LAURENT-D-VAR","",0.0,0.0,,,1,,,
STOPAREA:00757,,"LE CROS - CAGNES-SUR-MER","",43.659672,7.160272,,,1,,,
STOPAREA:00758,,"CAGNES/MER - CAGNES-SUR-MER","",43.653731,7.143843,,,1,,,
STOPAREA:00759,,"VILLENEUVE - VILLENEUVE-LBT","",43.641683,7.133089,,,1,,,
STOPAREA:00760,,"LA FONTONNE - ANTIBES","",43.600514,7.121578,,,1,,,
STOPAREA:00761,,"ANTIBES CENTRE - ANTIBES","",43.574918,7.115663,,,1,,,
STOPAREA:00764,,"LA SOURCE - CANNES","",43.552902,7.058358,,,1,,,
STOPAREA:00782,,"COL  DE VILLEFRANCHE - VILLEFRANCHE-SU","",43.711451,7.319973,,,1,,,
STOPAREA:00783,,"EZE VILLAGE 1 - VILLEFRANCHE-SU","",43.716871,7.333062,,,1,,,
STOPAREA:00784,,"EZE VILLAGE 2 - EZE","",43.73029,7.365754,,,1,,,
STOPAREA:00785,,"CAP D'AIL - CAP D'AIL","",43.725826,7.407003,,,1,,,
STOPAREA:00786,,"BEAUSOLEIL - MONACO","",43.739426,7.422613,,,1,,,
STOPAREA:00794,,"LA TRINITE - TRINITE (LA)","",43.749344,7.375395,,,1,,,
STOPAREA:00814,,"NICE - VAUBAN GR - NICE","",43.702251,7.297768,,,1,,,
STOPAREA:00816,,"ST LAURENT D'EZE - EZE","",43.730829,7.376889,,,1,,,
STOPAREA:00899,,"VALLAURIS - VALLAURIS - VALLAURIS","",43.5631,7.066555,,,1,,,
STOPAREA:00905,,"LAGHET - TRINITE (LA)","",43.750562,7.382497,,,1,,,
STOPAREA:00907,,"ST MARTIN de PEILLE - PEILLE","",43.768627,7.399994,,,1,,,
STOPAREA:00908,,"ST PANCRACE - PEILLE","",43.79255,7.400193,,,1,,,
STOPAREA:00914,,"LA TURBIE - TURBIE (LA)","",43.748367,7.387591,,,1,,,
STOPAREA:00915,,"CHEMIN DES OLIVIERS - BEAUSOLEIL","",43.744944,7.39479,,,1,,,
STOPAREA:00924,,"PEILLE - PEILLE","",43.804603,7.404453,,,1,,,
STOPAREA:00972,,"TOUET-DE-L'ESCARENE - - TOUET-ESCARENE","",43.8479,7.362688,,,1,,,
STOPAREA:00973,,"DRAP - GARE DRAP / CANTARON - DRAP","",43.76088,7.318225,,,1,,,
STOPAREA:01193,,"GUILLAUMES - GUILLAUMES - GUILLAUMES","",44.089167,6.853711,,,1,,,
STOPAREA:01241,,"NICE - PONT DE L'ARIANE - NICE","",43.734073,7.301732,,,1,,,
STOPAREA:01244,,"DRAP - DRAP","",43.761855,7.321188,,,1,,,
STOPAREA:01245,,"PONT DE PEILLE - DRAP","",43.773752,7.335389,,,1,,,
STOPAREA:01279,,"POINTE DE CONTES - CONTES","",43.789604,7.331716,,,1,,,
STOPAREA:01282,,"CONTES - CONTES","",43.81438,7.309902,,,1,,,
STOPAREA:01538,,"BON VOYAGE - NICE","",43.731811,7.289785,,,1,,,
STOPAREA:01539,,"LA VERNEA - CONTES","",43.805304,7.336224,,,1,,,
STOPAREA:01541,,"SCLOS DE CONTES - CONTES","",43.813677,7.342795,,,1,,,
STOPAREA:01555,,"PINEA - COARAZE","",43.853841,7.291004,,,1,,,
STOPAREA:01581,,"ROQUEFORT - CENTRE - ROQUEFT-LS-PINS","",43.666335,7.050591,,,1,,,
STOPAREA:01588,,"ROQUEFORT - NORD - ROQUEFT-LS-PINS","",43.677316,7.024742,,,1,,,
STOPAREA:01592,,"LE ROURET - ROURET (LE)","",43.677085,7.016907,,,1,,,
STOPAREA:01594,,"CHATEAUNEUF - CHATNEUF-GRASSE","",43.676173,6.975087,,,1,,,
STOPAREA:01597,,"MAGAGNOSC - GRASSE","",43.627398,6.960359,,,1,,,
STOPAREA:01598,,"GRASSE CENTRE - GRASSE","",43.648575,6.926143,,,1,,,
STOPAREA:01606,,"COARAZE - COARAZE","",43.865294,7.293314,,,1,,,
STOPAREA:01607,,"LUCERAM - LUCERAM","",43.884337,7.360563,,,1,,,
STOPAREA:01608,,"PEILLON - PEILLON","",43.765735,7.343663,,,1,,,
STOPAREA:01611,,"BERRE-LES-ALPES - BERRE-LES-ALPES","",43.83086,7.32722,,,1,,,
STOPAREA:01618,,"PEIRA CAVA - LUCERAM","",43.932586,7.361554,,,1,,,
STOPAREA:01629,,"VENCE - MARECHAL FOCH - VENCE","",43.723284,7.105903,,,1,,,
STOPAREA:01630,,"PONT DU LOUP - GOURDON","",43.708099,6.989835,,,1,,,
STOPAREA:01637,,"VALETTES - TOURRETTES/LOUP","",43.704747,7.010252,,,1,,,
STOPAREA:01638,,"CAMASSADE - TOURRETTES/LOUP","",43.706713,7.045496,,,1,,,
STOPAREA:01639,,"TOURRETTES - TOURRETTES/LOUP","",43.716901,7.058522,,,1,,,
STOPAREA:01640,,"NOTRE DAME - VENCE","",43.722959,7.081914,,,1,,,
STOPAREA:01665,,"SQUARE ESCALIERS - TOURRETTES/LOUP","",43.706924,7.002696,,,1,,,
STOPAREA:01667,,"MALVAN - VENCE","",43.727186,7.088638,,,1,,,
STOPAREA:01669,,"VENCE - VENCE","",43.714478,7.117684,,,1,,,
STOPAREA:01680,,"TOURNAMY - MOUGINS","",43.597851,6.986278,,,1,,,
STOPAREA:01682,,"CARNOT - CANNES","",43.555281,7.017133,,,1,,,
STOPAREA:01702,,"GARE DES MESSUGUES - VALBONNE","",43.623002,7.057617,,,1,,,
STOPAREA:01703,,"CERAM - VALBONNE","",43.615411,7.054492,,,1,,,
STOPAREA:01707,,"CHAPPES INRIA - VALBONNE","",43.61403,7.046794,,,1,,,
STOPAREA:01708,,"VALBONNE - VALBONNE","",43.677749,6.979577,,,1,,,
STOPAREA:01713,,"IUT SOPHIA - BIOT","",43.620856,7.061277,,,1,,,
STOPAREA:01714,,"EGANAUDE - VALBONNE","",43.625825,7.042429,,,1,,,
STOPAREA:01763,,"CARROS VILLE - CARROS","",43.774179,7.191048,,,1,,,
STOPAREA:01787,,"BOUYON VILLAGE - BOUYON","",43.825255,7.123046,,,1,,,
STOPAREA:01798,,"BROC (LE) - BROC (LE)","",43.809002,7.168592,,,1,,,
STOPAREA:01799,,"Carros - village - R - CARROS","",43.792418,7.185429,,,1,,,
STOPAREA:01800,,"LES ARBORAS - NICE","",43.693047,7.194172,,,1,,,
STOPAREA:01801,,"ST ISIDORE - NICE","",43.711068,7.187791,,,1,,,
STOPAREA:01815,,"LE CHAUDAN - UTELLE","",43.870873,7.198027,,,1,,,
STOPAREA:01816,,"MALAUSSENE - MALAUSSENE","",43.931534,7.117735,,,1,,,
STOPAREA:01817,,"VILLARS - VILLARS-SUR-VAR","",43.937271,7.085434,,,1,,,
STOPAREA:01818,,"TOUET-SUR-VAR - TOUET-SUR-VAR","",43.947762,7.006472,,,1,,,
STOPAREA:01819,,"PUGET-THENIERS - PUGET-THENIERS","",43.95482,6.893537,,,1,,,
STOPAREA:01820,,"ENTREVAUX - ENTREVAUX","",43.9494,6.809964,,,1,,,
STOPAREA:01821,,"ENRIEZ - ENRIEZ","",43.981561,6.758459,,,1,,,
STOPAREA:01823,,"DALUIS - DALUIS","",44.026357,6.813339,,,1,,,
STOPAREA:01825,,"VILLENEUVE-D'ENTRAUNES - VLNVE-ENTRAUNES","",44.120078,6.795789,,,1,,,
STOPAREA:01827,,"ENTRAUNES - ENTRAUNES","",44.188081,6.748532,,,1,,,
STOPAREA:01829,,"BONSON - BONSON","",43.863048,7.188724,,,1,,,
STOPAREA:01830,,"REVEST - REVEST-LS-ROCHE","",43.881455,7.156369,,,1,,,
STOPAREA:01831,,"TOURETTE du CHATEAU - TOURETTE-DU-CHT","",43.882205,7.143479,,,1,,,
STOPAREA:01832,,"TOUDON - TOUDON","",43.901493,7.112488,,,1,,,
STOPAREA:01833,,"ASCROS - ASCROS","",43.920716,7.014463,,,1,,,
STOPAREA:01856,,"GATTIERES - GATTIERES","",43.760642,7.175398,,,1,,,
STOPAREA:01873,,"LE CANNET - LE CANNET","",43.573247,6.999932,,,1,,,
STOPAREA:01874,,"MOUGINS - MOUGINS","",43.60469,6.987258,,,1,,,
STOPAREA:01875,,"MOUANS SARTOUX - MOUANS SARTOUX","",43.614849,6.975006,,,1,,,
STOPAREA:01876,,"ST CLAUDE - GRASSE","",43.644989,6.941054,,,1,,,
STOPAREA:01878,,"VALCLUSE - AURIBEAU/SIAGNE","",43.615678,6.921046,,,1,,,
STOPAREA:01879,,"ROQUETTE-SUR-S - SAINT-JEAN - ROQUETTE/SIAGNE","",43.589029,6.937013,,,1,,,
STOPAREA:01880,,"LA FRAYERE - CANNES","",43.572939,6.953326,,,1,,,
STOPAREA:01882,,"CARROS -TENNIS - CARROS","",43.766925,7.200107,,,1,,,
STOPAREA:01886,,"NICE - PALMIERS - NICE","",43.681912,7.198782,,,1,,,
STOPAREA:01888,,"LINGOSTIERE - NICE","",43.735208,7.184408,,,1,,,
STOPAREA:01890,,"COMBES - NICE","",43.741262,7.184991,,,1,,,
STOPAREA:01894,,"PONT MANDA - COLOMARS","",0.0,0.0,,,1,,,
STOPAREA:01896,,"CASTAGNIERS - CASTAGNIERS","",43.78985,7.215121,,,1,,,
STOPAREA:01900,,"PT CHARLES - ROQUETTE/VAR","",43.837672,7.194017,,,1,,,
STOPAREA:01904,,"PLAN DU VAR - LEVENS","",43.857136,7.197009,,,1,,,
STOPAREA:01906,,"SENEGOGE - GILETTE","",43.841223,7.189795,,,1,,,
STOPAREA:01908,,"GILETTE - GILETTE","",43.843251,7.184478,,,1,,,
STOPAREA:01912,,"COLLEBELLE - GILETTE","",43.854869,7.143182,,,1,,,
STOPAREA:01913,,"VESCOUS - TOUDON","",43.863708,7.112452,,,1,,,
STOPAREA:01914,,"PIERREFEU - PIERREFEU","",43.864083,7.092425,,,1,,,
STOPAREA:01915,,"RANC - ROQUESTERON - P","",43.857706,7.043845,,,1,,,
STOPAREA:01916,,"ROQUESTERON - ROQUESTERON - P","",43.860786,7.023957,,,1,,,
STOPAREA:01924,,"SIGALE - SIGALE","",43.87621,6.977323,,,1,,,
STOPAREA:01947,,"BEUIL - BEUIL","",0.0,0.0,,,1,,,
STOPAREA:01950,,"LES LAUNES - BEUIL","",0.0,0.0,,,1,,,
STOPAREA:01951,,"VALBERG - PEONE-VALBERG","",0.0,0.0,,,1,,,
STOPAREA:01956,,"COLLE - LA COLLE/LOUP","",43.692712,7.105975,,,1,,,
STOPAREA:02100,,"SAINT-PAUL - S.PAUL-DE-VENCE","",43.695733,7.10917,,,1,,,
STOPAREA:02101,,"LA COLLE - LA COLLE/LOUP","",43.682811,7.112399,,,1,,,
STOPAREA:02102,,"LYCEE RENOIR - CAGNES-SUR-MER","",43.670506,7.150648,,,1,,,
STOPAREA:02106,,"VILLENEUVE LOUBET - VILLENEUVE-LBT","",43.642554,7.138435,,,1,,,
STOPAREA:02114,,"PEGOMAS - PEGOMAS","",43.600752,6.923048,,,1,,,
STOPAREA:02139,,"CES MIMOSAS - MANDELIEU","",43.564877,6.939681,,,1,,,
STOPAREA:02141,,"CORNICHE - MOUANS SARTOUX","",43.6191,6.975759,,,1,,,
STOPAREA:02154,,"MOULIN DE BRUN-LE PLAN - GRASSE","",43.625181,6.964165,,,1,,,
STOPAREA:02159,,"PLASCASSIER - CHATNEUF-GRASSE","",43.640188,6.993932,,,1,,,
STOPAREA:02160,,"GENIE - ANTIBES","",43.603927,7.072764,,,1,,,
STOPAREA:02161,,"LYCEE - ANTIBES","",43.592764,7.115306,,,1,,,
STOPAREA:02237,,"GOURDON - GOURDON","",43.721161,6.976941,,,1,,,
STOPAREA:02239,,"COURMES - COURMES","",43.761458,6.988992,,,1,,,
STOPAREA:02241,,"GREOLIERES - GREOLIERES","",43.796383,6.942855,,,1,,,
STOPAREA:02243,,"GREOL les NEIGES - GREOLIERES","",43.829917,6.967624,,,1,,,
STOPAREA:02525,,"BAR-SUR-LOUP - BAR/LOUP (LE)","",43.703751,6.991288,,,1,,,
STOPAREA:02554,,"GARBEJAIRE - VALBONNE","",43.6237,7.04507,,,1,,,
STOPAREA:02622,,"BLAUSASC - BLAUSASC","",43.805262,7.361903,,,1,,,
STOPAREA:02628,,"ST-MARTIN/VAR - ST-MARTIN-D.VAR","",43.821921,7.191939,,,1,,,
STOPAREA:02654,,"L'ESCARENE - ESCARENE (L')","",43.840015,7.352377,,,1,,,
STOPAREA:02670,,"GRASSE - LES CHAUVES - GRASSE","",43.68036,6.952241,,,1,,,
STOPAREA:02671,,"CHATEAUNEUF - PRE DU LAC - CHATNEUF-GRASSE","",43.686417,6.978691,,,1,,,
STOPAREA:02672,,"AURIBEAU - AURIBEAU/SIAGNE","",43.604043,6.918456,,,1,,,
STOPAREA:02697,,"CARROS - MANDA R.G. - CARROS","",0.0,0.0,,,1,,,
STOPAREA:02813,,"ROQUETTE/Siagne - ROQUETTE/SIAGNE","",43.574566,6.959845,,,1,,,
STOPAREA:03138,,"BENDEJUN - BENDEJUN - BENDEJUN","",43.838993,7.293819,,,1,,,
STOPAREA:03188,,"VENCE - COLLEGE DE LA SINE - VENCE","",43.721553,7.083259,,,1,,,
STOPAREA:03202,,"BAR-SUR-LOUP - BAR/LOUP (LE)","",43.700034,6.989377,,,1,,,
STOPAREA:03373,,"MONACO - MONACO","",43.749825,7.437219,,,1,,,
STOPAREA:03379,,"VAL DE CUBERTE - VALBONNE","",43.632866,7.000231,,,1,,,
STOPAREA:03380,,"RIGAUD - RIGAUD - RIGAUD","",44.004508,6.991809,,,1,,,
STOPAREA:03541,,"SAINT-MARTIN ENTRAUNES - ST-MT-ENTRAUNES","",44.13684,6.766934,,,1,,,
STOPAREA:03608,,"MENTON - MENTON","",43.774299,7.506468,,,1,,,
STOPAREA:03707,,"GRASSE - GRASSE","",43.681758,6.961746,,,1,,,
STOPAREA:03907,,"CONTES - LA GRAVE DE CONTES - CONTES","",43.809822,7.314197,,,1,,,
STOPAREA:03993,,"CANNES - CANNES","",43.549575,6.977323,,,1,,,
STOPAREA:03994,,"NICE - NICE","",43.692123,7.307158,,,1,,,
STOPAREA:3,,"ORIGINE - COMMUNE HR DEPT","",0.0,0.0,,,1,,,
STOPAREA:4,,"DESTINATION - COMMUNE HR DEPT","",0.0,0.0,,,1,,,
STOPPOINT:00003,,"Saint Véran - CAGNES-SUR-MER","",43.653731,7.143843,,,0,STOPAREA:00758,,
STOPPOINT:00004,,"Le Logis du Loup - CAGNES-SUR-MER","",43.646872,7.136874,,,0,STOPAREA:00758,,
STOPPOINT:00005,,"Les Deux Rives - VILLENEUVE-LBT","",43.641683,7.133089,,,0,STOPAREA:00759,,
STOPPOINT:00006,,"Villeneuve - Le Loubet Marina - A - VILLENEUVE-LBT","",43.635395,7.133537,,,0,STOPAREA:00759,,
STOPPOINT:00007,,"Les Touristes - VILLENEUVE-LBT","",43.628635,7.133206,,,0,,,
STOPPOINT:00008,,"Parc Vaugrenier - VILLENEUVE-LBT","",43.624694,7.131295,,,0,,,
STOPPOINT:00009,,"Les Groules - VILLENEUVE-LBT","",43.618354,7.128881,,,0,STOPAREA:00759,,
STOPPOINT:00011,,"Tananarive - ANTIBES","",43.606454,7.123657,,,0,,,
STOPPOINT:00012,,"Antibes - La Fontonne - A - ANTIBES","",43.600514,7.121578,,,0,STOPAREA:00760,,
STOPPOINT:00013,,"Petit Four - ANTIBES","",43.598179,7.120236,,,0,,,
STOPPOINT:00016,,"Vautrin - ANTIBES","",43.584465,7.118152,,,0,STOPAREA:00559,,
STOPPOINT:00018,,"Pont du Colonial - ANTIBES","",43.574918,7.115663,,,0,STOPAREA:00761,,
STOPPOINT:00019,,"Antibes - La Régence - A - ANTIBES","",43.571813,7.108417,,,0,,,
STOPPOINT:00020,,"Antibes - Pont du Lys - A - ANTIBES","",43.572825,7.101443,,,0,,,
STOPPOINT:00021,,"Le Trianon - ANTIBES","",43.574346,7.099336,,,0,,,
STOPPOINT:00022,,"Ste Jeanne d'Arc - ANTIBES","",43.575158,7.095242,,,0,,,
STOPPOINT:00024,,"Antibes - Les Eucalyptus - A - ANTIBES","",43.573431,7.087062,,,0,,,
STOPPOINT:00025,,"La Glacière - VALLAURIS","",43.571346,7.083003,,,0,,,
STOPPOINT:00026,,"Les Courcettes - VALLAURIS","",43.570438,7.079925,,,0,,,
STOPPOINT:00027,,"La Gabelle - VALLAURIS","",43.569591,7.077124,,,0,,,
STOPPOINT:00028,,"Vallauris - Square Nabonnand - A - VALLAURIS","",43.568143,7.07261,,,0,,,
STOPPOINT:00029,,"Villa Lucienne - VALLAURIS","",43.565681,7.0696,,,0,,,
STOPPOINT:00030,,"Pont de l'Aube - VALLAURIS","",43.5631,7.066555,,,0,STOPAREA:00899,,
STOPPOINT:00031,,"Mirandole - VALLAURIS","",43.557305,7.062383,,,0,STOPAREA:00899,,
STOPPOINT:00032,,"Batterie - VALLAURIS","",43.552902,7.058358,,,0,STOPAREA:00764,,
STOPPOINT:00033,,"Mire Juan - CANNES","",43.549489,7.055718,,,0,STOPAREA:00764,,
STOPPOINT:00035,,"La Source - CANNES","",43.547334,7.047395,,,0,STOPAREA:00764,,
STOPPOINT:00036,,"Cannes - Alexandra Palace - CANNES","",43.548199,7.04143,,,0,,,
STOPPOINT:00037,,"Californie - CANNES","",16.600968,5.322356,,,0,,,
STOPPOINT:00038,,"Pont des Gabres - CANNES","",43.551051,7.031465,,,0,,,
STOPPOINT:00046,,"Capron - CANNES","",43.546488,7.035518,,,0,,,
STOPPOINT:00047,,"Notre Dame des Pins - CANNES","",43.546381,7.038348,,,0,,,
STOPPOINT:00048,,"Cannes - Gazagnaire - A - CANNES","",43.547265,7.045378,,,0,STOPAREA:00764,,
STOPPOINT:00049,,"Mire Juan - CANNES","",43.550765,7.056903,,,0,,,
STOPPOINT:00051,,"Mirandole - VALLAURIS","",43.556609,7.062139,,,0,STOPAREA:00899,,
STOPPOINT:00052,,"Pont de l'Aube - VALLAURIS","",43.561316,7.066042,,,0,,,
STOPPOINT:00053,,"Villa Lucienne - VALLAURIS","",43.566154,7.070391,,,0,,,
STOPPOINT:00054,,"Square Nabonnand - VALLAURIS","",43.568047,7.071532,,,0,,,
STOPPOINT:00055,,"La Gabelle - VALLAURIS","",43.569523,7.077199,,,0,,,
STOPPOINT:00056,,"Les Courcettes - VALLAURIS","",43.57053,7.080673,,,0,,,
STOPPOINT:00057,,"La Glacière - VALLAURIS","",43.571205,7.08299,,,0,STOPAREA:00899,,
STOPPOINT:00058,,"Les Eucapyptus - ANTIBES","",43.573515,7.088453,,,0,,,
STOPPOINT:00060,,"Ste Jeanne d'Arc - ANTIBES","",43.575037,7.095581,,,0,,,
STOPPOINT:00061,,"Le Trianon - ANTIBES","",43.574466,7.09901,,,0,,,
STOPPOINT:00062,,"Pont du Lys - ANTIBES","",43.572846,7.10136,,,0,,,
STOPPOINT:00063,,"Régence - ANTIBES","",43.571585,7.109783,,,0,,,
STOPPOINT:00064,,"Pont du Colonial - ANTIBES","",43.575396,7.116523,,,0,,,
STOPPOINT:00066,,"Super Antibes - ANTIBES","",0.0,0.0,,,0,STOPAREA:00070,,
STOPPOINT:00067,,"Super Antibes - ANTIBES","",0.0,0.0,,,0,STOPAREA:00070,,
STOPPOINT:00068,,"Petit Four - ANTIBES","",43.597899,7.120327,,,0,,,
STOPPOINT:00069,,"La Fontonne - ANTIBES","",43.600866,7.122249,,,0,,,
STOPPOINT:00071,,"Antibes - Biot Gare - A - ANTIBES","",43.61096,7.126022,,,0,,,
STOPPOINT:00072,,"Les Groules - ANTIBES","",43.617909,7.128916,,,0,,,
STOPPOINT:00073,,"Parc Vaugrenier - VILLENEUVE-LBT","",43.624704,7.131516,,,0,,,
STOPPOINT:00075,,"Le Loubet Marina - VILLENEUVE-LBT","",43.635756,7.13364,,,0,,,
STOPPOINT:00076,,"Les Deux Rives - VILLENEUVE-LBT","",43.641343,7.133323,,,0,,,
STOPPOINT:00077,,"Le Logis du Loup - CAGNES-SUR-MER","",43.648056,7.138173,,,0,,,
STOPPOINT:00078,,"Saint Véran - CAGNES-SUR-MER","",43.654065,7.144712,,,0,STOPAREA:00759,,
STOPPOINT:00081,,"Vallombrosa - A - CANNES","",0.0,0.0,,,0,,,
STOPPOINT:00083,,"Beausite - A - CANNES","",43.550827,6.999479,,,0,,,
STOPPOINT:00084,,"Palais des Pins - A - CANNES","",43.550701,6.996425,,,0,,,
STOPPOINT:00085,,"Bld Leader - A - CANNES","",43.550575,6.993422,,,0,,,
STOPPOINT:00086,,"Méridien - A - CANNES","",43.550552,6.988398,,,0,,,
STOPPOINT:00087,,"Sainte Marguerite - A - CANNES","",43.549287,6.984927,,,0,,,
STOPPOINT:00088,,"Mairie Annexe - A - CANNES","",43.549387,6.981874,,,0,,,
STOPPOINT:00089,,"Poste de Police - A - CANNES","",43.549491,6.979281,,,0,,,
STOPPOINT:00090,,"Place du Marché - A - CANNES","",43.549575,6.977323,,,0,STOPAREA:03993,,
STOPPOINT:00121,,"Chapelle St Mathieu - GRASSE","",43.659941,6.955006,,,0,,,
STOPPOINT:00125,,"La Vallière Promenade - NICE","",43.670556,7.223732,,,0,,,
STOPPOINT:00130,,"Pont Anatole France - TRINITE (LA)","",43.741104,7.310872,,,0,,,
STOPPOINT:00131,,"Max Barel - NICE","",0.0,0.0,,,0,,,
STOPPOINT:00139,,"Drakkar - CAGNES-SUR-MER","",43.663408,7.131021,,,0,,,
STOPPOINT:00145,,"Place du Marché - R - CANNES","",43.54954,6.977386,,,0,,,
STOPPOINT:00146,,"Mairie Annexe - R - CANNES","",43.549273,6.982222,,,0,,,
STOPPOINT:00147,,"Sainte Marguerite - R - CANNES","",43.549147,6.984598,,,0,,,
STOPPOINT:00148,,"Méridien - R - CANNES","",43.549886,6.987101,,,0,,,
STOPPOINT:00150,,"Bld Leader - R - CANNES","",43.550527,6.994383,,,0,,,
STOPPOINT:00151,,"Palais des Pins - R - CANNES","",43.550652,6.997318,,,0,,,
STOPPOINT:00152,,"Beausite - R - CANNES","",43.55071,7.000244,,,0,,,
STOPPOINT:00154,,"Vallombrosa - R - CANNES","",0.0,0.0,,,0,,,
STOPPOINT:00155,,"Cannes - Gare SNCF - CANNES","",43.553692,7.020179,,,0,STOPAREA:03993,,
STOPPOINT:00156,,"Place Vauban (Bristol) - CANNES","",43.555281,7.017133,,,0,STOPAREA:01682,,
STOPPOINT:00158,,"Milton - CANNES","",43.562521,7.016799,,,0,,,
STOPPOINT:00159,,"Place Bénidorm - LE CANNET","",43.570953,7.014468,,,0,STOPAREA:00551,,
STOPPOINT:00160,,"Paul Doumer - LE CANNET","",43.566695,7.016583,,,0,,,
STOPPOINT:00161,,"Howarth - LE CANNET","",43.568146,7.01219,,,0,,,
STOPPOINT:00162,,"Mairie Rocheville - LE CANNET","",43.569284,7.005654,,,0,,,
STOPPOINT:00163,,"L'Olivet - LE CANNET","",43.573247,6.999932,,,0,STOPAREA:01873,,
STOPPOINT:00164,,"Cité Jardin - LE CANNET","",43.576945,6.998288,,,0,STOPAREA:01873,,
STOPPOINT:00165,,"Blanchisserie - MOUGINS","",43.581126,6.998105,,,0,,,
STOPPOINT:00166,,"Les Cabrières - MOUGINS","",43.586643,6.997471,,,0,,,
STOPPOINT:00167,,"Vaumare - MOUGINS","",43.591443,6.993811,,,0,,,
STOPPOINT:00168,,"La Crémaillère - MOUGINS","",43.594979,6.989344,,,0,,,
STOPPOINT:00169,,"Val De Mougins - MOUGINS","",43.597851,6.986278,,,0,STOPAREA:01680,,
STOPPOINT:00170,,"Tournamy - MOUGINS","",43.60469,6.987258,,,0,STOPAREA:01874,,
STOPPOINT:00171,,"Le Vicaire - MOUGINS","",43.610129,6.97976,,,0,STOPAREA:01874,,
STOPPOINT:00172,,"Les Gourettes - MOUANS SARTOUX","",43.614849,6.975006,,,0,STOPAREA:01875,,
STOPPOINT:00173,,"Mouans Centre - MOUANS SARTOUX","",43.618976,6.97193,,,0,STOPAREA:01875,,
STOPPOINT:00174,,"Les Plantiers - MOUANS SARTOUX","",43.622578,6.96844,,,0,STOPAREA:01875,,
STOPPOINT:00175,,"Les Plaines - GRASSE","",43.625181,6.964165,,,0,STOPAREA:02154,,
STOPPOINT:00176,,"Les Bastides Du Golf - GRASSE","",43.627398,6.960359,,,0,STOPAREA:01597,,
STOPPOINT:00177,,"Le Chaudron - GRASSE","",43.630495,6.958766,,,0,,,
STOPPOINT:00178,,"RD PT De La Paoûte - GRASSE","",43.632004,6.956714,,,0,,,
STOPPOINT:00179,,"Bois Fleuri - GRASSE","",43.635117,6.951754,,,0,,,
STOPPOINT:00180,,"Les Oliviers (600) - GRASSE","",43.639154,6.949826,,,0,,,
STOPPOINT:00181,,"Les Fleurs De Grasse - GRASSE","",43.643222,6.94597,,,0,STOPAREA:02154,,
STOPPOINT:00182,,"Les Quatre Chemins - GRASSE","",43.644989,6.941054,,,0,STOPAREA:01876,,
STOPPOINT:00183,,"Les Abattoirs - A - GRASSE","",43.647978,6.936328,,,0,,,
STOPPOINT:00184,,"Saint Claude - A - GRASSE","",43.649166,6.932623,,,0,STOPAREA:01876,,
STOPPOINT:00185,,"Les Loubonnières - A - GRASSE","",43.64847,6.929257,,,0,STOPAREA:01876,,
STOPPOINT:00186,,"Le Collet - A - GRASSE","",43.648575,6.926143,,,0,STOPAREA:01598,,
STOPPOINT:00187,,"Chasseurs Alpins - A - GRASSE","",43.650753,6.921859,,,0,,,
STOPPOINT:00188,,"Maréchal Leclerc - A - GRASSE","",43.650187,6.919744,,,0,,,
STOPPOINT:00189,,"Le Petit Paris - A - GRASSE","",43.650657,6.918936,,,0,,,
STOPPOINT:00190,,"Molinard - A - GRASSE","",43.652296,6.920009,,,0,,,
STOPPOINT:00191,,"Sainte Lorette - A - GRASSE","",43.653455,6.919212,,,0,,,
STOPPOINT:00193,,"Saint Jean La Ro - R - ROQUETTE/SIAGNE","",43.581382,6.945165,,,0,,,
STOPPOINT:00199,,"Le Collet - R - GRASSE","",43.648651,6.925464,,,0,STOPAREA:01598,,
STOPPOINT:00200,,"Les Loubonnières - R - GRASSE","",43.648134,6.928892,,,0,STOPAREA:01876,,
STOPPOINT:00201,,"Saint Claude - R - GRASSE","",43.648894,6.931528,,,0,,,
STOPPOINT:00202,,"Les Abattoirs - R - GRASSE","",43.647739,6.936188,,,0,STOPAREA:01876,,
STOPPOINT:00203,,"Les Quatre Chemins - R - GRASSE","",43.64542,6.939706,,,0,STOPAREA:01876,,
STOPPOINT:00204,,"Les Fleurs De Grasse - GRASSE","",43.642379,6.946473,,,0,,,
STOPPOINT:00205,,"Les Oliviers (600) - GRASSE","",43.639105,6.949656,,,0,,,
STOPPOINT:00206,,"Bois Fleuri - GRASSE","",43.63492,6.951596,,,0,,,
STOPPOINT:00207,,"RD PT De La Paoûte - GRASSE","",43.631801,6.956851,,,0,,,
STOPPOINT:00208,,"Le Chaudron - GRASSE","",43.63045,6.958746,,,0,,,
STOPPOINT:00209,,"Les Bastides Du Golf - GRASSE","",43.627647,6.959693,,,0,STOPAREA:01597,,
STOPPOINT:00210,,"Les Plaines - GRASSE","",43.625091,6.964084,,,0,STOPAREA:02154,,
STOPPOINT:00211,,"Les Plantiers - MOUANS SARTOUX","",43.622422,6.968484,,,0,,,
STOPPOINT:00212,,"Mouans Centre - MOUANS SARTOUX","",43.618956,6.971679,,,0,STOPAREA:01875,,
STOPPOINT:00213,,"Les Gourettes - MOUGINS","",43.614235,6.975522,,,0,,,
STOPPOINT:00214,,"Le Vicaire - MOUGINS","",43.610029,6.979764,,,0,STOPAREA:01680,,
STOPPOINT:00215,,"Tournamy - MOUGINS","",43.604498,6.987098,,,0,,,
STOPPOINT:00216,,"Val De Mougins - MOUGINS","",43.598593,6.986188,,,0,,,
STOPPOINT:00217,,"Vaumare - MOUGINS","",43.591314,6.993799,,,0,,,
STOPPOINT:00218,,"Les Cabrières - MOUGINS","",43.587254,6.996722,,,0,,,
STOPPOINT:00219,,"Blanchisserie - MOUGINS","",43.580698,6.997987,,,0,STOPAREA:01874,,
STOPPOINT:00220,,"Cité Jardin - LE CANNET","",43.576847,6.998099,,,0,,,
STOPPOINT:00221,,"L'Olivet - LE CANNET","",43.573283,6.999634,,,0,,,
STOPPOINT:00223,,"Madrid - LE CANNET","",43.567889,7.013014,,,0,,,
STOPPOINT:00224,,"Paul Doumer - LE CANNET","",43.566601,7.016358,,,0,STOPAREA:01873,,
STOPPOINT:00225,,"Milton - CANNES","",43.562494,7.01659,,,0,,,
STOPPOINT:00227,,"Place Vauban (Bristol) - CANNES","",43.555213,7.016864,,,0,STOPAREA:00552,,
STOPPOINT:00228,,"Chemin du Prugnon - ANTIBES","",43.594357,7.120084,,,0,,,
STOPPOINT:00232,,"Bocca Nord - A - CANNES","",43.558268,6.96859,,,0,STOPAREA:03993,,
STOPPOINT:00233,,"Val Frayère - A - CANNES","",43.561105,6.967358,,,0,,,
STOPPOINT:00234,,"Le Grand Saule - A - CANNES","",43.562943,6.965882,,,0,,,
STOPPOINT:00236,,"Abadie II - A - CANNES","",43.56791,6.96055,,,0,,,
STOPPOINT:00237,,"Pont d'Avril - A - CANNES","",43.572939,6.953326,,,0,STOPAREA:01880,,
STOPPOINT:00238,,"Dandon - A - ROQUETTE/SIAGNE","",43.578029,6.950566,,,0,,,
STOPPOINT:00240,,"Hameau St Jean - A - ROQUETTE/SIAGNE","",43.580245,6.947845,,,0,,,
STOPPOINT:00241,,"Le Cros - A - ROQUETTE/SIAGNE","",43.587119,6.939663,,,0,,,
STOPPOINT:00242,,"Le Rouret - A - ROQUETTE/SIAGNE","",43.589029,6.937013,,,0,STOPAREA:01879,,
STOPPOINT:00243,,"Les Ribiers - A - PEGOMAS","",43.590225,6.935164,,,0,,,
STOPPOINT:00245,,"Les Arnauds - A - PEGOMAS","",43.598499,6.924431,,,0,,,
STOPPOINT:00246,,"Chemin De Tuilière - A - PEGOMAS","",43.600752,6.923048,,,0,STOPAREA:02114,,
STOPPOINT:00247,,"Piéranchon - AURIBEAU/SIAGNE","",43.604043,6.918456,,,0,STOPAREA:02672,,
STOPPOINT:00248,,"Les Bertrand - A - AURIBEAU/SIAGNE","",43.605394,6.917009,,,0,,,
STOPPOINT:00249,,"Moulin Vieux - A - AURIBEAU/SIAGNE","",43.607789,6.91565,,,0,,,
STOPPOINT:00253,,"Les Condamines - A - AURIBEAU/SIAGNE","",43.61027,6.916185,,,0,,,
STOPPOINT:00254,,"La Scierie - A - AURIBEAU/SIAGNE","",43.612318,6.919564,,,0,STOPAREA:02672,,
STOPPOINT:00255,,"Notre Dame Valcluse - A - AURIBEAU/SIAGNE","",43.614575,6.921198,,,0,,,
STOPPOINT:00257,,"Chemin Basse Moulières - A - GRASSE","",43.625502,6.927514,,,0,,,
STOPPOINT:00258,,"Les Oliviers (610) - A - GRASSE","",43.628576,6.928647,,,0,,,
STOPPOINT:00259,,"Bois De Boulogne - A - GRASSE","",43.633948,6.932211,,,0,,,
STOPPOINT:00262,,"Saint Antoine - A - GRASSE","",43.643211,6.93818,,,0,,,
STOPPOINT:00263,,"Jacinthes - R - GRASSE","",43.644633,6.939271,,,0,,,
STOPPOINT:00264,,"Saint Antoine - R - GRASSE","",43.643256,6.9381,,,0,,,
STOPPOINT:00267,,"Bois De Boulogne - R - GRASSE","",43.633139,6.9313,,,0,,,
STOPPOINT:00268,,"Les Oliviers (610) - R - GRASSE","",43.628705,6.928632,,,0,,,
STOPPOINT:00269,,"Chemin Basse Moulières - R - GRASSE","",43.625552,6.927403,,,0,,,
STOPPOINT:00271,,"Notre Dame Valcluse - R - AURIBEAU/SIAGNE","",43.615678,6.921046,,,0,STOPAREA:01878,,
STOPPOINT:00272,,"La Scierie - R - AURIBEAU/SIAGNE","",43.612355,6.919392,,,0,,,
STOPPOINT:00274,,"Adrien Rey - R - AURIBEAU/SIAGNE","",43.608055,6.914413,,,0,,,
STOPPOINT:00275,,"Moulin Vieux - R - AURIBEAU/SIAGNE","",43.607717,6.91555,,,0,,,
STOPPOINT:00276,,"Les Bertrand - R - AURIBEAU/SIAGNE","",43.605639,6.916787,,,0,,,
STOPPOINT:00277,,"Piéranchon - R - AURIBEAU/SIAGNE","",43.604001,6.918703,,,0,STOPAREA:02672,,
STOPPOINT:00278,,"Chemin De Tuilière - R - PEGOMAS","",43.601416,6.92247,,,0,,,
STOPPOINT:00279,,"Les Arnauds - R - PEGOMAS","",43.596268,6.926066,,,0,STOPAREA:02114,,
STOPPOINT:00280,,"Le Logis - PEGOMAS","",43.592287,6.930813,,,0,,,
STOPPOINT:00282,,"Le Rouret - R - ROQUETTE/SIAGNE","",43.589413,6.936185,,,0,,,
STOPPOINT:00283,,"Le Cros - R - ROQUETTE/SIAGNE","",43.587239,6.939202,,,0,,,
STOPPOINT:00284,,"Hameau St Jean - R - ROQUETTE/SIAGNE","",43.580015,6.947945,,,0,,,
STOPPOINT:00286,,"Dandon - R - ROQUETTE/SIAGNE","",43.577988,6.950416,,,0,STOPAREA:01879,,
STOPPOINT:00287,,"Pont d'Avril - R - CANNES","",43.573432,6.952608,,,0,,,
STOPPOINT:00289,,"Cimetière de l'Abadie - A - CANNES","",43.568034,6.957963,,,0,,,
STOPPOINT:00290,,"Ranchito - R - CANNES","",43.565607,6.96469,,,0,,,
STOPPOINT:00292,,"Val Frayère - R - CANNES","",43.561143,6.96719,,,0,,,
STOPPOINT:00297,,"Village - CHATNEUF-GRASSE","",43.676173,6.975087,,,0,STOPAREA:01594,,
STOPPOINT:00298,,"l'Escure - BAR/LOUP (LE)","",43.683039,6.975413,,,0,,,
STOPPOINT:00299,,"La Sorbière - BAR/LOUP (LE)","",43.686417,6.978691,,,0,STOPAREA:02671,,
STOPPOINT:00300,,"Saint Andrieux - BAR/LOUP (LE)","",43.690267,6.979647,,,0,,,
STOPPOINT:00301,,"Usine Mane - BAR/LOUP (LE)","",43.694728,6.978869,,,0,,,
STOPPOINT:00302,,"Le Riou - BAR/LOUP (LE)","",43.696671,6.977691,,,0,,,
STOPPOINT:00303,,"La Fontaine - BAR/LOUP (LE)","",43.700034,6.989377,,,0,STOPAREA:03202,,
STOPPOINT:00307,,"Le Planet - BAR/LOUP (LE)","",43.703751,6.991288,,,0,STOPAREA:02525,,
STOPPOINT:00308,,"Les Vergers - BAR/LOUP (LE)","",43.708099,6.989835,,,0,STOPAREA:01630,,
STOPPOINT:00309,,"Le Bosquet - GOURDON","",43.713851,6.987653,,,0,,,
STOPPOINT:00310,,"Maison Sicard - GOURDON","",43.716594,6.989583,,,0,,,
STOPPOINT:00311,,"Pont du Loup - GOURDON","",43.719461,6.991291,,,0,STOPAREA:01630,,
STOPPOINT:00312,,"Square Escalier - TOURRETTES/LOUP","",43.717913,6.992003,,,0,STOPAREA:01630,,
STOPPOINT:00314,,"Transformateur - TOURRETTES/LOUP","",43.709035,6.99899,,,0,,,
STOPPOINT:00315,,"Mounier - TOURRETTES/LOUP","",43.706924,7.002696,,,0,STOPAREA:01665,,
STOPPOINT:00316,,"Les Valettes - TOURRETTES/LOUP","",43.704747,7.010252,,,0,STOPAREA:01637,,
STOPPOINT:00317,,"Les Courmettes - TOURRETTES/LOUP","",43.703181,7.017025,,,0,,,
STOPPOINT:00318,,"La Menuiserie - TOURRETTES/LOUP","",43.706609,7.028766,,,0,,,
STOPPOINT:00319,,"Saint Arnoux - TOURRETTES/LOUP","",43.705673,7.041092,,,0,STOPAREA:01637,,
STOPPOINT:00320,,"Camassade - TOURRETTES/LOUP","",43.706713,7.045496,,,0,STOPAREA:01638,,
STOPPOINT:00321,,"Le Garage - TOURRETTES/LOUP","",43.708081,7.048261,,,0,,,
STOPPOINT:00322,,"Chemin de la Gare - TOURRETTES/LOUP","",43.714753,7.056204,,,0,STOPAREA:01638,,
STOPPOINT:00323,,"Village - TOURRETTES/LOUP","",43.716901,7.058522,,,0,STOPAREA:01639,,
STOPPOINT:00324,,"La Madeleine - TOURRETTES/LOUP","",43.717995,7.063161,,,0,,,
STOPPOINT:00325,,"Combe du Rai - TOURRETTES/LOUP","",43.720589,7.075955,,,0,STOPAREA:01639,,
STOPPOINT:00326,,"Notre Dame des Fleurs - VENCE","",43.722959,7.081914,,,0,STOPAREA:01640,,
STOPPOINT:00327,,"Les Cambreniers - VENCE","",43.724308,7.085635,,,0,STOPAREA:01640,,
STOPPOINT:00328,,"Le Malvan - VENCE","",43.727186,7.088638,,,0,STOPAREA:01667,,
STOPPOINT:00329,,"Les Quatre Vents - VENCE","",43.725377,7.092383,,,0,,,
STOPPOINT:00330,,"Mistral - VENCE","",43.726869,7.094951,,,0,,,
STOPPOINT:00331,,"Saint Donat - VENCE","",43.725137,7.099316,,,0,,,
STOPPOINT:00332,,"Humbert Ricolfi - VENCE","",43.724868,7.103397,,,0,STOPAREA:01667,,
STOPPOINT:00350,,"Humbert Ricolfi - VENCE","",43.725462,7.102966,,,0,,,
STOPPOINT:00351,,"Saint Donat - VENCE","",43.725243,7.095154,,,0,,,
STOPPOINT:00352,,"Mistral - VENCE","",43.726953,7.094688,,,0,,,
STOPPOINT:00353,,"Le Malvan - VENCE","",43.72747,7.088468,,,0,STOPAREA:01667,,
STOPPOINT:00354,,"Les Cambreniers - VENCE","",43.724442,7.085329,,,0,,,
STOPPOINT:00355,,"Notre Dame des Fleurs - VENCE","",43.72306,7.081914,,,0,STOPAREA:01640,,
STOPPOINT:00356,,"La Madeleine - TOURRETTES/LOUP","",43.718352,7.063128,,,0,,,
STOPPOINT:00357,,"Village - TOURRETTES/LOUP","",43.716829,7.058679,,,0,STOPAREA:01639,,
STOPPOINT:00358,,"Chemin de la Gare - TOURRETTES/LOUP","",43.714197,7.056313,,,0,,,
STOPPOINT:00359,,"Les Courmettes - TOURRETTES/LOUP","",43.703351,7.017704,,,0,,,
STOPPOINT:00360,,"Square Escalier - TOURRETTES/LOUP","",43.71771,6.992091,,,0,STOPAREA:01665,,
STOPPOINT:00361,,"Les Vergers - BAR/LOUP (LE)","",43.708041,6.98969,,,0,STOPAREA:01630,,
STOPPOINT:00362,,"Le Planet - BAR/LOUP (LE)","",43.704741,6.991314,,,0,,,
STOPPOINT:00363,,"La Jarrerie - BAR/LOUP (LE)","",43.702444,6.990676,,,0,STOPAREA:01630,,
STOPPOINT:00365,,"La Fontaine - BAR/LOUP (LE)","",43.700103,6.989324,,,0,STOPAREA:03202,,
STOPPOINT:00366,,"Amiral de Grasse - BAR/LOUP (LE)","",43.698474,6.981563,,,0,,,
STOPPOINT:00367,,"Usine Mane - BAR/LOUP (LE)","",43.695076,6.97854,,,0,,,
STOPPOINT:00368,,"Saint Andrieux - BAR/LOUP (LE)","",43.690327,6.979551,,,0,STOPAREA:02525,,
STOPPOINT:00369,,"La Sorbière - BAR/LOUP (LE)","",43.686519,6.978614,,,0,,,
STOPPOINT:00370,,"l'Escure - BAR/LOUP (LE)","",43.683275,6.975514,,,0,,,
STOPPOINT:00371,,"J. Médecin Hôtel des Postes - NICE","",43.698916,7.269392,,,0,,,
STOPPOINT:00372,,"Grimaldi - NICE","",43.697671,7.265311,,,0,,,
STOPPOINT:00375,,"Gambetta Promenade - NICE","",0.0,0.0,,,0,,,
STOPPOINT:00376,,"Grosso CUM Promenade - NICE","",43.693118,7.252643,,,0,,,
STOPPOINT:00377,,"Magnan Promenade - NICE","",43.690462,7.244725,,,0,,,
STOPPOINT:00378,,"Lenval Promenade - NICE","",43.689054,7.241702,,,0,,,
STOPPOINT:00379,,"Fabron Promenade - NICE","",43.687316,7.238665,,,0,,,
STOPPOINT:00380,,"Carras Promenade - R - NICE","",0.0,0.0,,,0,,,
STOPPOINT:00381,,"Carras Promenade - A - NICE","",0.0,0.0,,,0,,,
STOPPOINT:00382,,"Aéroport Promenade - A - NICE","",0.0,0.0,,,0,STOPAREA:00750,,
STOPPOINT:00383,,"La Passerelle SNCF - A - S.LAURENT-D-VAR","",43.661721,7.194297,,,0,,,
STOPPOINT:00384,,"La Belle Etoile - A - S.LAURENT-D-VAR","",43.659986,7.187477,,,0,,,
STOPPOINT:00385,,"Le Gros Chêne - A - S.LAURENT-D-VAR","",0.0,0.0,,,0,,,
STOPPOINT:00387,,"Val Fleuri - A - CAGNES-SUR-MER","",0.0,0.0,,,0,,,
STOPPOINT:00388,,"Les Tritons SNCF - CAGNES-SUR-MER","",43.659589,7.168895,,,0,,,
STOPPOINT:00389,,"Les Oliviers - CAGNES-SUR-MER","",43.659245,7.164684,,,0,,,
STOPPOINT:00390,,"Les Violettes - CAGNES-SUR-MER","",43.659672,7.160272,,,0,STOPAREA:00757,,
STOPPOINT:00391,,"La Bégude - CAGNES-SUR-MER","",43.660136,7.155866,,,0,,,
STOPPOINT:00392,,"Georges Pompidou - CAGNES-SUR-MER","",43.663969,7.154676,,,0,,,
STOPPOINT:00394,,"11 Novembre - CAGNES-SUR-MER","",43.661915,7.149231,,,0,,,
STOPPOINT:00395,,"Square 8 Mai SNCF - CAGNES-SUR-MER","",43.660066,7.148487,,,0,,,
STOPPOINT:00397,,"Le Puits - CAGNES-SUR-MER","",43.658246,7.142253,,,0,,,
STOPPOINT:00400,,"Village - VILLENEUVE-LBT","",43.657548,7.122078,,,0,,,
STOPPOINT:00401,,"Camping du Sourire - VILLENEUVE-LBT","",43.659975,7.103233,,,0,,,
STOPPOINT:00402,,"La Vanade - VILLENEUVE-LBT","",43.659508,7.095978,,,0,,,
STOPPOINT:00403,,"Sparcos - VILLENEUVE-LBT","",43.654571,7.082542,,,0,,,
STOPPOINT:00404,,"Colle Longue - ROQUEFT-LS-PINS","",43.656942,7.074586,,,0,,,
STOPPOINT:00405,,"Vaugaillère - ROQUEFT-LS-PINS","",43.662612,7.072091,,,0,,,
STOPPOINT:00406,,"Aire De Boule - ROQUEFT-LS-PINS","",43.664266,7.0665,,,0,,,
STOPPOINT:00407,,"Plateau Fleuri - ROQUEFT-LS-PINS","",43.663964,7.063442,,,0,,,
STOPPOINT:00408,,"Colombier - ROQUEFT-LS-PINS","",43.661286,7.060196,,,0,,,
STOPPOINT:00409,,"Beaumon - ROQUEFT-LS-PINS","",43.66277,7.056333,,,0,,,
STOPPOINT:00410,,"Mairie Roquefort - ROQUEFT-LS-PINS","",43.666335,7.050591,,,0,STOPAREA:01581,,
STOPPOINT:00411,,"Le Plan - ROQUEFT-LS-PINS","",43.668049,7.043531,,,0,,,
STOPPOINT:00412,,"Les Pignatons - ROQUEFT-LS-PINS","",43.673502,7.038557,,,0,,,
STOPPOINT:00413,,"Beaume Granet - ROQUEFT-LS-PINS","",43.677258,7.035391,,,0,,,
STOPPOINT:00414,,"Notre Dame - ROQUEFT-LS-PINS","",43.679699,7.034858,,,0,,,
STOPPOINT:00415,,"Les Rigamels - ROQUEFT-LS-PINS","",43.679039,7.028061,,,0,,,
STOPPOINT:00416,,"Les Martels - ROQUEFT-LS-PINS","",43.677316,7.024742,,,0,STOPAREA:01588,,
STOPPOINT:00417,,"Les Moulins - ROURET (LE)","",43.677195,7.017025,,,0,,,
STOPPOINT:00418,,"La Poste - ROURET (LE)","",43.676246,7.012289,,,0,,,
STOPPOINT:00419,,"Place du Rouret - ROURET (LE)","",43.674161,7.006692,,,0,,,
STOPPOINT:00421,,"Les Gibous - CHATNEUF-GRASSE","",43.675305,6.986268,,,0,,,
STOPPOINT:00422,,"La Paillotte - CHATNEUF-GRASSE","",43.677749,6.979577,,,0,STOPAREA:01708,,
STOPPOINT:00423,,"Les Mousquettes - CHATNEUF-GRASSE","",43.678863,6.973882,,,0,,,
STOPPOINT:00426,,"Magagnosc - GRASSE","",43.681475,6.96687,,,0,STOPAREA:01597,,
STOPPOINT:00427,,"Mairie Annexe - GRASSE","",43.681758,6.961746,,,0,STOPAREA:03707,,
STOPPOINT:00429,,"Les Bastides (500) - GRASSE","",43.681512,6.956675,,,0,,,
STOPPOINT:00430,,"Les Chauves - GRASSE","",43.68036,6.952241,,,0,STOPAREA:02670,,
STOPPOINT:00431,,"Le Riou - GRASSE","",43.679079,6.947664,,,0,,,
STOPPOINT:00432,,"Malbosc - GRASSE","",43.671925,6.942344,,,0,STOPAREA:01597,,
STOPPOINT:00433,,"Les Olivettes - GRASSE","",43.666758,6.936348,,,0,,,
STOPPOINT:00434,,"Le Palais Provencal - GRASSE","",43.664094,6.932816,,,0,,,
STOPPOINT:00435,,"Grand Hôtel - GRASSE","",43.663465,6.929355,,,0,,,
STOPPOINT:00436,,"Grand Hôtel - GRASSE","",43.663383,6.929744,,,0,,,
STOPPOINT:00437,,"Le Palais Provencal - GRASSE","",43.664133,6.933194,,,0,,,
STOPPOINT:00438,,"Les Olivettes - GRASSE","",43.666724,6.936569,,,0,,,
STOPPOINT:00439,,"La Pitchounette - GRASSE","",43.66906,6.940452,,,0,STOPAREA:01598,,
STOPPOINT:00440,,"Malbosc - GRASSE","",43.671361,6.942109,,,0,,,
STOPPOINT:00441,,"Le Riou - GRASSE","",43.679097,6.947779,,,0,,,
STOPPOINT:00442,,"Les Chauves - GRASSE","",43.68043,6.952561,,,0,,,
STOPPOINT:00443,,"Les Bastides (500) - GRASSE","",43.68166,6.955202,,,0,STOPAREA:01875,,
STOPPOINT:00444,,"Mariquita - GRASSE","",43.681251,6.958657,,,0,,,
STOPPOINT:00445,,"Mairie Annexe - GRASSE","",43.681729,6.962289,,,0,,,
STOPPOINT:00446,,"Magagnosc - GRASSE","",43.681312,6.967253,,,0,STOPAREA:01597,,
STOPPOINT:00447,,"Chateauneuf - CHATNEUF-GRASSE","",43.680121,6.971823,,,0,,,
STOPPOINT:00448,,"Les Mousquettes - CHATNEUF-GRASSE","",43.678531,6.973698,,,0,,,
STOPPOINT:00449,,"La Paillotte - CHATNEUF-GRASSE","",43.67727,6.980579,,,0,,,
STOPPOINT:00450,,"Les Gibous - CHATNEUF-GRASSE","",43.675183,6.986665,,,0,STOPAREA:01594,,
STOPPOINT:00452,,"Place du Rouret - ROURET (LE)","",43.674058,7.006783,,,0,,,
STOPPOINT:00453,,"La Poste - ROURET (LE)","",43.676144,7.012353,,,0,,,
STOPPOINT:00454,,"Les Moulins - ROURET (LE)","",43.677085,7.016907,,,0,STOPAREA:01592,,
STOPPOINT:00455,,"Les Martels - ROQUEFT-LS-PINS","",43.677247,7.024841,,,0,,,
STOPPOINT:00456,,"Notre Dame - ROQUEFT-LS-PINS","",43.679868,7.034662,,,0,,,
STOPPOINT:00457,,"Beaume Granet - ROQUEFT-LS-PINS","",43.677697,7.035093,,,0,,,
STOPPOINT:00458,,"Les Pignatons - ROQUEFT-LS-PINS","",43.673384,7.038541,,,0,,,
STOPPOINT:00459,,"Le Plan - ROQUEFT-LS-PINS","",43.668213,7.043469,,,0,STOPAREA:01588,,
STOPPOINT:00460,,"Mairie Roquefort - ROQUEFT-LS-PINS","",43.666839,7.048243,,,0,,,
STOPPOINT:00461,,"Beaumon - ROQUEFT-LS-PINS","",43.662832,7.055989,,,0,,,
STOPPOINT:00462,,"Colombier - ROQUEFT-LS-PINS","",43.661118,7.060465,,,0,,,
STOPPOINT:00463,,"Plateau Fleuri - ROQUEFT-LS-PINS","",43.663826,7.063505,,,0,STOPAREA:01581,,
STOPPOINT:00464,,"Aire De Boule - ROQUEFT-LS-PINS","",43.664087,7.066606,,,0,,,
STOPPOINT:00465,,"Vaugaillère - ROQUEFT-LS-PINS","",43.662716,7.07223,,,0,STOPAREA:01581,,
STOPPOINT:00466,,"Colle Longue - ROQUEFT-LS-PINS","",43.65751,7.074208,,,0,,,
STOPPOINT:00467,,"Sparcos - VILLENEUVE-LBT","",43.654498,7.082756,,,0,,,
STOPPOINT:00468,,"La Vanade - VILLENEUVE-LBT","",43.659416,7.096082,,,0,,,
STOPPOINT:00469,,"Camping du Sourire - VILLENEUVE-LBT","",43.6599,7.103084,,,0,,,
STOPPOINT:00470,,"Village - VILLENEUVE-LBT","",43.657505,7.12236,,,0,STOPAREA:00759,,
STOPPOINT:00473,,"Le Puits - CAGNES-SUR-MER","",43.658295,7.141611,,,0,,,
STOPPOINT:00475,,"Square 8 Mai SNCF - CAGNES-SUR-MER","",43.660035,7.148689,,,0,,,
STOPPOINT:00478,,"Georges Pompidou - CAGNES-SUR-MER","",43.663049,7.154319,,,0,,,
STOPPOINT:00479,,"La Bégude - CAGNES-SUR-MER","",43.660083,7.15559,,,0,STOPAREA:00758,,
STOPPOINT:00480,,"Les Violettes - CAGNES-SUR-MER","",43.659513,7.160585,,,0,,,
STOPPOINT:00481,,"Les Oliviers - CAGNES-SUR-MER","",43.659053,7.163488,,,0,,,
STOPPOINT:00482,,"Les Tritons SNCF - CAGNES-SUR-MER","",43.659457,7.16905,,,0,,,
STOPPOINT:00483,,"Val Fleuri - R - CAGNES-SUR-MER","",0.0,0.0,,,0,STOPAREA:00757,,
STOPPOINT:00485,,"Le Gros Chêne - S.LAURENT-D-VAR","",43.66017,7.182224,,,0,,,
STOPPOINT:00486,,"La Belle Etoile - R - S.LAURENT-D-VAR","",0.0,0.0,,,0,,,
STOPPOINT:00488,,"Gare Passerelle SNCF - R - S.LAURENT-D-VAR","",0.0,0.0,,,0,STOPAREA:00756,,
STOPPOINT:00489,,"Aéroport Promenade - NICE","",43.666346,7.212723,,,0,STOPAREA:00750,,
STOPPOINT:00490,,"Ferber Promenade - NICE","",43.677579,7.229283,,,0,,,
STOPPOINT:00491,,"Sainte Hélène Promenade - NICE","",43.684945,7.235718,,,0,,,
STOPPOINT:00492,,"Fabron Promenade - NICE","",43.686891,7.238595,,,0,,,
STOPPOINT:00493,,"Lenval Promenade - NICE","",43.688523,7.241401,,,0,,,
STOPPOINT:00494,,"Magnan Promenade - NICE","",43.690863,7.246632,,,0,,,
STOPPOINT:00495,,"Grosso CUM Promenade - NICE","",43.692737,7.252147,,,0,,,
STOPPOINT:00496,,"Gambetta Promenade - NICE","",43.693806,7.256954,,,0,,,
STOPPOINT:00497,,"Congrés Promenade - NICE","",43.6946,7.259768,,,0,,,
STOPPOINT:00499,,"Albert 1er Verdun - NICE","",0.0,0.0,,,0,,,
STOPPOINT:00501,,"Saint Pons Mairie - ROURET (LE)","",43.673755,7.005247,,,0,,,
STOPPOINT:00502,,"Princes - ROURET (LE)","",43.672406,7.004899,,,0,,,
STOPPOINT:00503,,"Les Trucs - ROURET (LE)","",43.672144,6.995898,,,0,,,
STOPPOINT:00504,,"Opio San-Peyre - A - OPIO","",43.668718,6.992804,,,0,,,
STOPPOINT:00505,,"Ecole Frédéric Mistral - OPIO","",43.66799,6.989629,,,0,STOPAREA:01594,,
STOPPOINT:00510,,"Village - VALBONNE","",43.642606,7.00704,,,0,STOPAREA:01708,,
STOPPOINT:00514,,"Bastion - MENTON","",43.774299,7.506468,,,0,STOPAREA:03608,,
STOPPOINT:00517,,"La Ginestière - CARROS","",43.784786,7.184445,,,0,,,
STOPPOINT:00518,,"Ecole Frédéric Mistral - OPIO","",43.667871,6.989679,,,0,,,
STOPPOINT:00519,,"Opio San-Peyre - R - OPIO","",43.668585,6.992783,,,0,,,
STOPPOINT:00520,,"Les Trucs - ROURET (LE)","",43.671809,6.996194,,,0,,,
STOPPOINT:00521,,"Le Cimetière - ROURET (LE)","",43.672279,6.998469,,,0,,,
STOPPOINT:00522,,"Princes - ROURET (LE)","",43.672157,7.004942,,,0,,,
STOPPOINT:00523,,"Saint Pons Mairie - ROURET (LE)","",43.673657,7.005261,,,0,,,
STOPPOINT:00535,,"Place Parchois - A - PEGOMAS","",43.594498,6.92699,,,0,,,
STOPPOINT:00553,,"Princesse Antoinette (SNCF) - MONACO","",43.735599,7.421302,,,0,,,
STOPPOINT:00571,,"Casino - MENTON","",43.772503,7.497578,,,0,,,
STOPPOINT:00573,,"Madone - MENTON","",43.770351,7.493382,,,0,,,
STOPPOINT:00582,,"Max Barel - NICE","",0.0,0.0,,,0,,,
STOPPOINT:00583,,"Pré Fossatti - NICE","",43.700532,7.294081,,,0,,,
STOPPOINT:00584,,"Col de Villefranche - VILLEFRANCHE-SU","",43.706475,7.301704,,,0,,,
STOPPOINT:00585,,"La Pinède - VILLEFRANCHE-SU","",43.706843,7.304264,,,0,,,
STOPPOINT:00586,,"La Corne d'Or - VILLEFRANCHE-SU","",43.706818,7.307062,,,0,,,
STOPPOINT:00587,,"Le Castellet - VILLEFRANCHE-SU","",43.709694,7.309751,,,0,,,
STOPPOINT:00588,,"La Léopolda - VILLEFRANCHE-SU","",43.709873,7.317602,,,0,,,
STOPPOINT:00589,,"Les Caroubiers - VILLEFRANCHE-SU","",43.711451,7.319973,,,0,STOPAREA:00782,,
STOPPOINT:00590,,"Saint Michel - VILLEFRANCHE-SU","",43.71733,7.33419,,,0,STOPAREA:00536,,
STOPPOINT:00592,,"La Calade - EZE","",43.720676,7.341889,,,0,,,
STOPPOINT:00593,,"Eze Village - EZE","",43.729878,7.362222,,,0,,,
STOPPOINT:00594,,"Les Flots Bleus - EZE","",43.73029,7.365754,,,0,STOPAREA:00784,,
STOPPOINT:00595,,"Chateau Balzan - EZE","",43.72913,7.369058,,,0,,,
STOPPOINT:00596,,"La Valliera - EZE","",43.731473,7.379976,,,0,,,
STOPPOINT:00597,,"Saint Laurent D'Eze RN7 - EZE","",43.732271,7.382565,,,0,,,
STOPPOINT:00598,,"Bautugan - CAP D'AIL","",43.724846,7.401488,,,0,STOPAREA:00541,,
STOPPOINT:00599,,"Centre Méditerranéen - CAP D'AIL","",43.724341,7.403171,,,0,STOPAREA:00541,,
STOPPOINT:00600,,"Dixie - CAP D'AIL","",43.725826,7.407003,,,0,STOPAREA:00785,,
STOPPOINT:00601,,"Salines (Hopital) - CAP D'AIL","",43.730154,7.409247,,,0,STOPAREA:00785,,
STOPPOINT:00602,,"Salines (Hopital) - CAP D'AIL","",43.730194,7.409121,,,0,,,
STOPPOINT:00603,,"Dixie - CAP D'AIL","",43.727196,7.407233,,,0,,,
STOPPOINT:00604,,"Costa Plana - CAP D'AIL","",43.726118,7.396552,,,0,,,
STOPPOINT:00605,,"Zone d'Activités - CAP D'AIL","",43.724927,7.391555,,,0,,,
STOPPOINT:00606,,"Les Serriers - EZE","",43.731987,7.39059,,,0,STOPAREA:00785,,
STOPPOINT:00608,,"Barnessa - EZE","",43.730829,7.376889,,,0,STOPAREA:00816,,
STOPPOINT:00609,,"La Valliera - EZE","",43.731567,7.379977,,,0,,,
STOPPOINT:00611,,"Les Flots Bleus - EZE","",43.730215,7.3663,,,0,,,
STOPPOINT:00612,,"Eze Village - EZE","",43.729891,7.361127,,,0,,,
STOPPOINT:00614,,"La Calade - EZE","",43.720918,7.342793,,,0,STOPAREA:00784,,
STOPPOINT:00615,,"L'Oasis - VILLEFRANCHE-SU","",43.720018,7.338712,,,0,,,
STOPPOINT:00616,,"Saint Michel - VILLEFRANCHE-SU","",43.716871,7.333062,,,0,STOPAREA:00783,,
STOPPOINT:00617,,"Les Caroubiers - VILLEFRANCHE-SU","",43.712503,7.319983,,,0,,,
STOPPOINT:00618,,"La Léopolda - VILLEFRANCHE-SU","",43.709947,7.317144,,,0,,,
STOPPOINT:00619,,"Le Castellet - VILLEFRANCHE-SU","",43.709833,7.309707,,,0,,,
STOPPOINT:00620,,"La Corne d'Or - VILLEFRANCHE-SU","",43.707116,7.307074,,,0,,,
STOPPOINT:00621,,"La Pinède - VILLEFRANCHE-SU","",43.70694,7.304339,,,0,,,
STOPPOINT:00622,,"Col de Villefranche - VILLEFRANCHE-SU","",43.706662,7.301698,,,0,STOPAREA:00782,,
STOPPOINT:00623,,"Pré Fossatti - NICE","",43.700847,7.294377,,,0,,,
STOPPOINT:00627,,"Le Port - NICE","",43.698315,7.285816,,,0,,,
STOPPOINT:00628,,"Gustavin - NICE","",43.696645,7.28998,,,0,,,
STOPPOINT:00629,,"Parc Louisa - NICE","",43.69614,7.292329,,,0,,,
STOPPOINT:00630,,"Les Crêtes - NICE","",43.691754,7.294453,,,0,,,
STOPPOINT:00631,,"Maeterlinck - NICE","",43.688014,7.296026,,,0,,,
STOPPOINT:00632,,"Hôpital Anglais - NICE","",43.686792,7.301566,,,0,,,
STOPPOINT:00633,,"Batterie - NICE","",43.687576,7.306216,,,0,,,
STOPPOINT:00635,,"Les Hespérides - NICE","",43.692123,7.307158,,,0,STOPAREA:03994,,
STOPPOINT:00637,,"Saint Estève - VILLEFRANCHE-SU","",43.699482,7.305484,,,0,,,
STOPPOINT:00638,,"Octroi - VILLEFRANCHE-SU","",43.701987,7.307656,,,0,,,
STOPPOINT:00639,,"La Barmassa - VILLEFRANCHE-SU","",43.705843,7.310192,,,0,,,
STOPPOINT:00640,,"Léopold II - VILLEFRANCHE-SU","",43.707123,7.312304,,,0,,,
STOPPOINT:00642,,"Schifanoia - VILLEFRANCHE-SU","",43.705831,7.31991,,,0,,,
STOPPOINT:00643,,"Ange Gardien - VILLEFRANCHE-SU","",43.7035,7.32298,,,0,STOPAREA:00536,,
STOPPOINT:00644,,"Pont Saint Jean - BEAULIEU/MER","",43.701721,7.325983,,,0,,,
STOPPOINT:00645,,"Montée du Rève - BEAULIEU/MER","",43.703358,7.326582,,,0,STOPAREA:00537,,
STOPPOINT:00648,,"Le Port - BEAULIEU/MER","",43.708479,7.334705,,,0,,,
STOPPOINT:00650,,"Petite Afrique - BEAULIEU/MER","",43.712928,7.338154,,,0,STOPAREA:00537,,
STOPPOINT:00651,,"David - EZE","",43.716701,7.349858,,,0,,,
STOPPOINT:00652,,"Cap Roux - EZE","",43.719376,7.351943,,,0,,,
STOPPOINT:00654,,"Cap Estel - EZE","",43.720475,7.376564,,,0,,,
STOPPOINT:00655,,"PK-Saint Laurent d'Eze - EZE","",43.723083,7.380011,,,0,STOPAREA:00816,,
STOPPOINT:00656,,"Gianton - EZE","",43.724465,7.38173,,,0,STOPAREA:00538,,
STOPPOINT:00657,,"Deux Tunnels - CAP D'AIL","",43.72361,7.3876,,,0,,,
STOPPOINT:00659,,"Guillaume Apollinaire - CAP D'AIL","",43.721916,7.398454,,,0,STOPAREA:00539,,
STOPPOINT:00660,,"l'Eglise - CAP D'AIL","",43.721777,7.403614,,,0,,,
STOPPOINT:00661,,"Hotel de Ville - CAP D'AIL","",43.722472,7.407469,,,0,,,
STOPPOINT:00662,,"Le Loup Blanc - CAP D'AIL","",43.724946,7.409345,,,0,,,
STOPPOINT:00663,,"Liberté - CAP D'AIL","",43.726554,7.411185,,,0,STOPAREA:00541,,
STOPPOINT:00664,,"Les Brunettes - MOUGINS","",43.610168,6.966137,,,0,,,
STOPPOINT:00665,,"Les Brunettes - MOUGINS","",43.60963,6.965723,,,0,,,
STOPPOINT:00667,,"La Tranchée - ROQUEBRUNE - CA","",43.754416,7.447108,,,0,,,
STOPPOINT:00668,,"1er Escalier - ROQUEBRUNE - CA","",43.762279,7.462548,,,0,,,
STOPPOINT:00669,,"Mairie Roquebrune - ROQUEBRUNE - CA","",43.757632,7.474115,,,0,,,
STOPPOINT:00671,,"Riva Bella - ROQUEBRUNE - CA","",43.758831,7.470218,,,0,,,
STOPPOINT:00672,,"2ième Hameau - ROQUEBRUNE - CA","",43.760559,7.470866,,,0,,,
STOPPOINT:00673,,"1er Hameau - ROQUEBRUNE - CA","",43.762216,7.472858,,,0,,,
STOPPOINT:00674,,"Bien Situèe - ROQUEBRUNE - CA","",43.760227,7.477812,,,0,,,
STOPPOINT:00676,,"Pont De L'Union - ROQUEBRUNE - CA","",43.765641,7.487283,,,0,STOPAREA:00543,,
STOPPOINT:00677,,"Viking - MENTON","",43.766164,7.488141,,,0,,,
STOPPOINT:00679,,"Place D'Armes - MENTON","",43.769572,7.492508,,,0,,,
STOPPOINT:00680,,"Casino - MENTON","",43.772536,7.497834,,,0,STOPAREA:03608,,
STOPPOINT:00681,,"Gare Routière - MENTON","",43.777239,7.494078,,,0,,,
STOPPOINT:00683,,"RD Du 24 Août - GRASSE","",43.639797,6.978821,,,0,,,
STOPPOINT:00694,,"Madone Gorbio - MENTON","",43.768061,7.490114,,,0,STOPAREA:03608,,
STOPPOINT:00697,,"Casernes SNCF - ROQUEBRUNE - CA","",43.76297,7.47911,,,0,,,
STOPPOINT:00699,,"2ième Hameau - ROQUEBRUNE - CA","",43.760375,7.470702,,,0,,,
STOPPOINT:00701,,"2ième Escalier - ROQUEBRUNE - CA","",43.762206,7.458975,,,0,,,
STOPPOINT:00702,,"Ramingao - ROQUEBRUNE - CA","",43.762629,7.454,,,0,,,
STOPPOINT:00703,,"Les 4 Chemins - ROQUEBRUNE - CA","",43.760524,7.452736,,,0,,,
STOPPOINT:00704,,"Saint Roman - ROQUEBRUNE - CA","",43.752879,7.439648,,,0,,,
STOPPOINT:00707,,"Liberté - CAP D'AIL","",43.727243,7.411429,,,0,,,
STOPPOINT:00708,,"Le Loup Blanc - CAP D'AIL","",43.725256,7.409568,,,0,,,
STOPPOINT:00709,,"Hotel de Ville - CAP D'AIL","",43.722598,7.406858,,,0,,,
STOPPOINT:00711,,"La Source - CAP D'AIL","",43.721921,7.399587,,,0,,,
STOPPOINT:00712,,"Beaverbrook - CAP D'AIL","",43.723164,7.396982,,,0,,,
STOPPOINT:00713,,"Deux Tunnels - CAP D'AIL","",43.723677,7.387621,,,0,STOPAREA:00539,,
STOPPOINT:00714,,"Gianton - EZE","",43.724399,7.381956,,,0,,,
STOPPOINT:00715,,"PK-Saint Laurent d'Eze - EZE","",43.724725,7.379631,,,0,STOPAREA:00538,,
STOPPOINT:00716,,"Cap Estel - EZE","",43.720675,7.377282,,,0,,,
STOPPOINT:00718,,"Cap Roux - EZE","",43.719842,7.35247,,,0,,,
STOPPOINT:00719,,"David - EZE","",43.718424,7.350167,,,0,STOPAREA:00538,,
STOPPOINT:00720,,"Petite Afrique - BEAULIEU/MER","",43.713214,7.33862,,,0,,,
STOPPOINT:00721,,"La Plage - BEAULIEU/MER","",43.70883,7.334364,,,0,,,
STOPPOINT:00723,,"l'Eglise - BEAULIEU/MER","",43.705461,7.334081,,,0,,,
STOPPOINT:00724,,"Gare SNCF - BEAULIEU/MER","",43.706278,7.331517,,,0,,,
STOPPOINT:00725,,"Joffre - BEAULIEU/MER","",43.70626,7.328383,,,0,,,
STOPPOINT:00727,,"Ange Gardien - VILLEFRANCHE-SU","",43.70301,7.324248,,,0,,,
STOPPOINT:00728,,"Schifanoia - VILLEFRANCHE-SU","",43.705409,7.320697,,,0,,,
STOPPOINT:00730,,"Léopold II - VILLEFRANCHE-SU","",43.708083,7.312994,,,0,,,
STOPPOINT:00731,,"La Barmassa - VILLEFRANCHE-SU","",43.705949,7.309734,,,0,,,
STOPPOINT:00732,,"Octroi - VILLEFRANCHE-SU","",43.702462,7.308166,,,0,,,
STOPPOINT:00733,,"Saint Estève - VILLEFRANCHE-SU","",43.700138,7.305516,,,0,STOPAREA:00536,,
STOPPOINT:00735,,"Les Hespérides - NICE","",43.691555,7.306989,,,0,,,
STOPPOINT:00736,,"Hôpital Anglais - NICE","",43.686907,7.301557,,,0,,,
STOPPOINT:00737,,"Maeterlinck - NICE","",43.688088,7.296205,,,0,STOPAREA:00533,,
STOPPOINT:00738,,"Le Port - NICE","",43.698762,7.284397,,,0,STOPAREA:03994,,
STOPPOINT:00740,,"Daluis Village - R - DALUIS","",44.026515,6.813359,,,0,,,
STOPPOINT:00741,,"Wilson - NICE","",0.0,0.0,,,0,,,
STOPPOINT:00744,,"Belgique - MONACO","",43.737336,7.418761,,,0,,,
STOPPOINT:00745,,"Vauban Université - NICE","",43.70939,7.28786,,,0,,,
STOPPOINT:00774,,"Pont Ste Dévote - MONACO","",43.738749,7.419773,,,0,,,
STOPPOINT:00776,,"Fontvieille Albert 2 - MONACO","",43.728257,7.414605,,,0,,,
STOPPOINT:00779,,"La Pighiera - ESCARENE (L')","",43.838225,7.352579,,,0,,,
STOPPOINT:00789,,"Pont de la Roma - TRINITE (LA)","",43.745565,7.317799,,,0,,,
STOPPOINT:00793,,"Village - PEILLE","",43.804603,7.404453,,,0,STOPAREA:00924,,
STOPPOINT:00795,,"Collège Romée - VILLENEUVE-LBT","",43.654441,7.127411,,,0,,,
STOPPOINT:00804,,"Pont Ste Dévote - MONACO","",43.738632,7.41917,,,0,,,
STOPPOINT:00805,,"Fort Thaon - NICE","",43.700515,7.296396,,,0,,,
STOPPOINT:00807,,"Les Quatre Vents - VENCE","",43.725499,7.092579,,,0,,,
STOPPOINT:00808,,"Rocade - VENCE","",43.718129,7.113557,,,0,,,
STOPPOINT:00811,,"Centre Ville - GRASSE","",43.659487,6.92241,,,0,,,
STOPPOINT:00812,,"Corniche Bénard 2 Vallon - MOUANS SARTOUX","",43.629099,6.97573,,,0,,,
STOPPOINT:00813,,"Avenue Thiers - GRASSE","",43.661096,6.922528,,,0,,,
STOPPOINT:00819,,"Acropolis Barla - NICE","",43.703362,7.280408,,,0,,,
STOPPOINT:00821,,"Risso Palais - NICE","",43.707737,7.284764,,,0,,,
STOPPOINT:00823,,"Ancien Octroi - NICE","",43.722654,7.290141,,,0,,,
STOPPOINT:00824,,"Les Ecoles - NICE","",43.725515,7.288093,,,0,,,
STOPPOINT:00825,,"Lavoir - NICE","",43.728492,7.284082,,,0,,,
STOPPOINT:00826,,"Pont De L'Ariane - NICE","",43.734073,7.301732,,,0,STOPAREA:01241,,
STOPPOINT:00827,,"Le Pont - GRASSE","",43.643046,6.956454,,,0,,,
STOPPOINT:00828,,"Le Pont - GRASSE","",43.64306,6.956802,,,0,,,
STOPPOINT:00830,,"Le Vallon - DRAP","",43.75279,7.32099,,,0,,,
STOPPOINT:00831,,"Place Cauvin - DRAP","",43.755312,7.320473,,,0,,,
STOPPOINT:00832,,"Carlin - DRAP","",43.75867,7.320446,,,0,,,
STOPPOINT:00833,,"Pont de Cantaron - DRAP","",43.759825,7.319941,,,0,,,
STOPPOINT:00834,,"Pont du Chemin de Fer - DRAP","",43.761855,7.321188,,,0,STOPAREA:01244,,
STOPPOINT:00835,,"Les Vernes - DRAP","",43.764408,7.326206,,,0,,,
STOPPOINT:00836,,"Village - BLAUSASC","",43.805262,7.361903,,,0,STOPAREA:02622,,
STOPPOINT:00837,,"Pont de Peille (360) - BLAUSASC","",43.768147,7.33195,,,0,,,
STOPPOINT:00838,,"La Condamine - BLAUSASC","",43.770653,7.332988,,,0,,,
STOPPOINT:00839,,"La Tencia - BLAUSASC","",43.771698,7.333127,,,0,,,
STOPPOINT:00840,,"Robinasso - BLAUSASC","",43.773752,7.335389,,,0,STOPAREA:01245,,
STOPPOINT:00841,,"La Pointe - BLAUSASC","",43.777649,7.33815,,,0,,,
STOPPOINT:00842,,"Le Tabac - BLAUSASC","",43.780375,7.337946,,,0,,,
STOPPOINT:00843,,"La Pointe de Contes - CONTES","",43.782083,7.33708,,,0,,,
STOPPOINT:00844,,"Le Crouzelier - CONTES","",43.783465,7.33611,,,0,,,
STOPPOINT:00845,,"Passerelle - CONTES","",43.786985,7.33338,,,0,,,
STOPPOINT:00846,,"La Roseyre - CONTES","",43.789604,7.331716,,,0,STOPAREA:01279,,
STOPPOINT:00847,,"Trancasse - CONTES","",43.792672,7.329568,,,0,,,
STOPPOINT:00848,,"Barella - CONTES","",43.795474,7.326964,,,0,,,
STOPPOINT:00849,,"Le Pilon - CONTES","",43.801397,7.3231,,,0,,,
STOPPOINT:00850,,"Le Gheit - CONTES","",43.805329,7.319043,,,0,,,
STOPPOINT:00851,,"La Grave de Contes - CONTES","",43.809822,7.314197,,,0,STOPAREA:03907,,
STOPPOINT:00852,,"La Croix - CONTES","",43.81438,7.309902,,,0,STOPAREA:01282,,
STOPPOINT:00853,,"Maison de Retraite - CONTES","",43.81559,7.310325,,,0,STOPAREA:01282,,
STOPPOINT:00854,,"Le Trinco - CONTES","",43.812458,7.313376,,,0,,,
STOPPOINT:00855,,"La Croix - CONTES","",43.814129,7.309845,,,0,,,
STOPPOINT:00856,,"La Grave de Contes - CONTES","",43.809643,7.314227,,,0,STOPAREA:03907,,
STOPPOINT:00857,,"Le Gheit - CONTES","",43.805144,7.31902,,,0,,,
STOPPOINT:00858,,"Le Pilon - CONTES","",43.801376,7.322943,,,0,,,
STOPPOINT:00859,,"Barella - CONTES","",43.795807,7.326368,,,0,,,
STOPPOINT:00860,,"Trancasse - CONTES","",43.791458,7.330007,,,0,STOPAREA:01282,,
STOPPOINT:00861,,"La Roseyre - CONTES","",43.789883,7.331291,,,0,,,
STOPPOINT:00862,,"Passerelle - CONTES","",43.787003,7.333178,,,0,,,
STOPPOINT:00863,,"Le Crouzelier - CONTES","",43.783441,7.33597,,,0,,,
STOPPOINT:00864,,"La Pointe de Contes - CONTES","",43.782001,7.337017,,,0,STOPAREA:01279,,
STOPPOINT:00865,,"Le Tabac - BLAUSASC","",43.779824,7.337865,,,0,,,
STOPPOINT:00866,,"La Pointe - BLAUSASC","",43.777089,7.337768,,,0,,,
STOPPOINT:00867,,"Robinasso - BLAUSASC","",43.77358,7.335015,,,0,,,
STOPPOINT:00868,,"La Tencia - BLAUSASC","",43.771644,7.332991,,,0,,,
STOPPOINT:00869,,"La Condamine - BLAUSASC","",43.770547,7.332745,,,0,,,
STOPPOINT:00870,,"Pont de Peille (360) - BLAUSASC","",43.7684,7.331788,,,0,,,
STOPPOINT:00871,,"Les Vernes - Lycée de Drap - DRAP","",43.76439,7.336466,,,0,STOPAREA:01245,,
STOPPOINT:00872,,"Pont du Chemin de Fer - DRAP","",43.762608,7.321592,,,0,STOPAREA:01244,,
STOPPOINT:00873,,"Pont de Cantaron - DRAP","",43.759931,7.319671,,,0,,,
STOPPOINT:00874,,"Carlin - DRAP","",43.758282,7.320387,,,0,,,
STOPPOINT:00875,,"Place Cauvin - DRAP","",43.755615,7.320384,,,0,,,
STOPPOINT:00876,,"Le Vallon - DRAP","",43.751848,7.320436,,,0,,,
STOPPOINT:00877,,"La Piscine - GRASSE","",43.639473,6.956048,,,0,,,
STOPPOINT:00878,,"La Piscine - GRASSE","",43.638565,6.956306,,,0,,,
STOPPOINT:00879,,"Pont De L'Ariane - NICE","",43.734378,7.302557,,,0,,,
STOPPOINT:00880,,"Lavoir - NICE","",43.728518,7.283788,,,0,,,
STOPPOINT:00881,,"Les Ecoles - NICE","",43.725235,7.288265,,,0,,,
STOPPOINT:00882,,"La Brigue - NICE","",43.713581,7.284235,,,0,,,
STOPPOINT:00890,,"Abattoirs - NICE","",43.718783,7.285218,,,0,,,
STOPPOINT:00900,,"Cagnes sur mer - Tiercé - A - CAGNES-SUR-MER","",43.651357,7.151798,,,0,,,
STOPPOINT:00904,,"Centre - PEGOMAS","",43.594077,6.926231,,,0,,,
STOPPOINT:00906,,"Centre - R - PEGOMAS","",43.593922,6.92643,,,0,,,
STOPPOINT:00921,,"L'Argile - ROQUETTE/SIAGNE","",43.603956,6.960218,,,0,,,
STOPPOINT:00922,,"L'Argile - ROQUETTE/SIAGNE","",43.603956,6.960218,,,0,,,
STOPPOINT:00923,,"La Charmeraie - A - ROQUETTE/SIAGNE","",43.592479,6.930743,,,0,,,
STOPPOINT:00930,,"La Grange Rimade - CAGNES-SUR-MER","",43.662805,7.125857,,,0,,,
STOPPOINT:00931,,"Hameaux du Soleil - CAGNES-SUR-MER","",43.668239,7.122181,,,0,STOPAREA:00758,,
STOPPOINT:00932,,"Les Espères - CAGNES-SUR-MER","",43.670765,7.120771,,,0,STOPAREA:00759,,
STOPPOINT:00933,,"Les Caillades - LA COLLE/LOUP","",43.673981,7.119956,,,0,,,
STOPPOINT:00934,,"Pas de Sénés - LA COLLE/LOUP","",43.678965,7.116757,,,0,,,
STOPPOINT:00935,,"Les Campons - LA COLLE/LOUP","",43.680049,7.115671,,,0,,,
STOPPOINT:00936,,"Monfort - LA COLLE/LOUP","",43.682811,7.112399,,,0,STOPAREA:02101,,
STOPPOINT:00937,,"Les Arnoux - LA COLLE/LOUP","",43.68433,7.109925,,,0,,,
STOPPOINT:00938,,"Village - LA COLLE/LOUP","",0.0,0.0,,,0,,,
STOPPOINT:00939,,"Cimetière - LA COLLE/LOUP","",43.690437,7.105294,,,0,,,
STOPPOINT:00940,,"La Souquée - LA COLLE/LOUP","",43.692712,7.105975,,,0,STOPAREA:01956,,
STOPPOINT:00941,,"Les Côtes - S.PAUL-DE-VENCE","",43.695733,7.10917,,,0,STOPAREA:02100,,
STOPPOINT:00942,,"Les Fumerates - S.PAUL-DE-VENCE","",43.698839,7.11253,,,0,,,
STOPPOINT:00943,,"Fondation Maeght - S.PAUL-DE-VENCE","",43.698589,7.117997,,,0,,,
STOPPOINT:00944,,"Village - S.PAUL-DE-VENCE","",43.699334,7.121596,,,0,STOPAREA:02100,,
STOPPOINT:00945,,"Route de St Paul - VENCE","",43.714478,7.117684,,,0,STOPAREA:01669,,
STOPPOINT:00946,,"Mathias Duval - R - GRASSE","",43.653344,6.921194,,,0,,,
STOPPOINT:00947,,"Saint Benoit -Pont de Gueydan - R - SAINT-BENOIT","",43.968048,6.757003,,,0,,,
STOPPOINT:00949,,"Les Fumerates - S.PAUL-DE-VENCE","",43.69903,7.112345,,,0,STOPAREA:02100,,
STOPPOINT:00950,,"Les Côtes - S.PAUL-DE-VENCE","",43.696619,7.109572,,,0,STOPAREA:02100,,
STOPPOINT:00951,,"La Souquée - LA COLLE/LOUP","",43.693253,7.105918,,,0,STOPAREA:02101,,
STOPPOINT:00952,,"Cimetière - R - LA COLLE/LOUP","",43.690755,7.105364,,,0,STOPAREA:02101,,
STOPPOINT:00953,,"Village - R - LA COLLE/LOUP","",43.688057,7.104973,,,0,,,
STOPPOINT:00954,,"Les Arnoux - LA COLLE/LOUP","",43.684241,7.109873,,,0,,,
STOPPOINT:00955,,"Monfort - LA COLLE/LOUP","",43.682571,7.112523,,,0,STOPAREA:02101,,
STOPPOINT:00956,,"Les Campons - LA COLLE/LOUP","",43.680014,7.115598,,,0,,,
STOPPOINT:00957,,"Pas de Sénés - LA COLLE/LOUP","",43.678526,7.117148,,,0,,,
STOPPOINT:00958,,"Les Espères - LA COLLE/LOUP","",43.670813,7.120589,,,0,STOPAREA:02101,,
STOPPOINT:00959,,"Hameaux du Soleil - CAGNES-SUR-MER","",43.667792,7.122087,,,0,STOPAREA:00758,,
STOPPOINT:00960,,"La Grange Rimade - CAGNES-SUR-MER","",43.662953,7.125464,,,0,STOPAREA:00759,,
STOPPOINT:00962,,"Bella Vista - EZE","",43.726498,7.349487,,,0,,,
STOPPOINT:00963,,"Grimaldi Forum - MONACO","",43.744149,7.431354,,,0,,,
STOPPOINT:00965,,"Les 4 Chemins - S.PAUL-DE-VENCE","",43.686703,7.130121,,,0,,,
STOPPOINT:00966,,"Les Cayrons - VENCE","",43.707759,7.130015,,,0,,,
STOPPOINT:00982,,"Bois De Boulogne - NICE","",43.672971,7.202177,,,0,,,
STOPPOINT:00984,,"Palais Nikaïa - NICE","",43.680931,7.199379,,,0,,,
STOPPOINT:00985,,"Les Palmiers - NICE","",0.0,0.0,,,0,,,
STOPPOINT:00986,,"Navello - NICE","",43.687355,7.197151,,,0,,,
STOPPOINT:00987,,"Nice - Les Arboras - A - NICE","",43.693047,7.194172,,,0,STOPAREA:01800,,
STOPPOINT:00988,,"NICE - PAPILLON - A - NICE","",0.0,0.0,,,0,,,
STOPPOINT:00989,,"Nice - Les Baraques - A - NICE","",43.695441,7.192383,,,0,,,
STOPPOINT:00991,,"Nice - Saint Isidore - A - NICE","",43.711068,7.187791,,,0,STOPAREA:01801,,
STOPPOINT:00992,,"Lingostière Gare - A - NICE","",43.719969,7.186352,,,0,,,
STOPPOINT:00993,,"Carrefour Lingostière - NICE","",43.727647,7.188861,,,0,,,
STOPPOINT:00994,,"Tour Manda - NICE","",43.735208,7.184408,,,0,STOPAREA:01888,,
STOPPOINT:00995,,"Garelli - NICE","",43.741262,7.184991,,,0,STOPAREA:01890,,
STOPPOINT:00997,,"Nice - Martin - NICE","",43.756378,7.198025,,,0,STOPAREA:01890,,
STOPPOINT:00999,,"Colomars - Gare la Manda - A - COLOMARS","",0.0,0.0,,,0,STOPAREA:01894,,
STOPPOINT:01005,,"Castagniers - A - CASTAGNIERS","",43.78985,7.215121,,,0,STOPAREA:01896,,
STOPPOINT:01012,,"Place St Martin du Var - ST-MARTIN-D.VAR","",43.821921,7.191939,,,0,STOPAREA:02628,,
STOPPOINT:01016,,"Pont Charles Albert - A - ROQUETTE/VAR","",43.838326,7.194455,,,0,,,
STOPPOINT:01019,,"La Cascade - LEVENS","",43.857136,7.197009,,,0,STOPAREA:01904,,
STOPPOINT:01020,,"Levens - Plan Du Var - R - LEVENS","",43.85871,7.19729,,,0,STOPAREA:01904,,
STOPPOINT:01021,,"Plan Du Var - LEVENS","",43.858542,7.197373,,,0,STOPAREA:01904,,
STOPPOINT:01022,,"Levens - La Cascade - R - LEVENS","",43.857141,7.19687,,,0,STOPAREA:01904,,
STOPPOINT:01024,,"Roquette - Pont Charles Albert -R - ROQUETTE/VAR","",43.837672,7.194017,,,0,STOPAREA:01900,,
STOPPOINT:01028,,"Colomars - Gare la Manda - R - COLOMARS","",43.7635,7.204537,,,0,STOPAREA:01894,,
STOPPOINT:01030,,"Nice - Les Baraques - R - NICE","",0.0,0.0,,,0,,,
STOPPOINT:01032,,"NICE - LES ARBORAS - R - NICE","",0.0,0.0,,,0,STOPAREA:01800,,
STOPPOINT:01034,,"Les Palmiers - NICE","",43.684635,7.198001,,,0,,,
STOPPOINT:01036,,"Courteline - MOUGINS","",43.598103,6.995824,,,0,,,
STOPPOINT:01038,,"Le Chaudan - UTELLE","",43.870873,7.198027,,,0,STOPAREA:01815,,
STOPPOINT:01039,,"Villars sur var - Gare - A - VILLARS-SUR-VAR","",43.937271,7.085434,,,0,STOPAREA:01817,,
STOPPOINT:01040,,"Village - VILLARS-SUR-VAR","",43.703397,7.323336,,,0,STOPAREA:01817,,
STOPPOINT:01044,,"Touet sur var - Village - A - TOUET-SUR-VAR","",43.947762,7.006472,,,0,STOPAREA:01818,,
STOPPOINT:01045,,"Touet sur var - Cians - TOUET-SUR-VAR","",43.949049,6.990121,,,0,,,
STOPPOINT:01046,,"Puget théniers - Village - PUGET-THENIERS","",43.95482,6.893537,,,0,STOPAREA:01819,,
STOPPOINT:01052,,"Daluis - Village - A - DALUIS","",44.026357,6.813339,,,0,STOPAREA:01823,,
STOPPOINT:01053,,"Guillaume Le Plan - R - GUILLAUMES","",44.082571,6.855446,,,0,,,
STOPPOINT:01057,,"Entraunes - Village - ENTRAUNES","",44.188081,6.748532,,,0,STOPAREA:01827,,
STOPPOINT:01058,,"Saint Martin d'Entraun -Les Clots - ST-MT-ENTRAUNES","",44.148551,6.756994,,,0,,,
STOPPOINT:01059,,"Saint Martin d'Entraunes -Village - ST-MT-ENTRAUNES","",44.141576,6.762283,,,0,,,
STOPPOINT:01061,,"Villeneuve d'Entraunes - Village - VLNVE-ENTRAUNES","",44.120078,6.795789,,,0,STOPAREA:01825,,
STOPPOINT:01062,,"Guillaume - Village - A - GUILLAUMES","",44.089167,6.853711,,,0,STOPAREA:01193,,
STOPPOINT:01064,,"Cians (Intersection) - RIGAUD","",43.949803,6.987635,,,0,STOPAREA:01818,,
STOPPOINT:01065,,"Touet sur var - Village - TOUET-SUR-VAR","",43.9477,7.006728,,,0,STOPAREA:01818,,
STOPPOINT:01066,,"Villars sur var - Gare - R - VILLARS-SUR-VAR","",43.937119,7.085535,,,0,STOPAREA:01817,,
STOPPOINT:01067,,"Malausséne Gare - R - MALAUSSENE","",43.931534,7.117735,,,0,STOPAREA:01816,,
STOPPOINT:01068,,"Utelle - Le Chaudan - R - UTELLE","",43.870546,7.198069,,,0,STOPAREA:01815,,
STOPPOINT:01069,,"Clue Du Cians - RIGAUD","",43.949066,6.990069,,,0,,,
STOPPOINT:01070,,"Moulin De Rigaud - RIGAUD","",43.987321,7.00075,,,0,,,
STOPPOINT:01074,,"Pra D'Astier - RIGAUD","",44.004508,6.991809,,,0,STOPAREA:03380,,
STOPPOINT:01078,,"Village - BEUIL","",44.096204,6.986092,,,0,,,
STOPPOINT:01080,,"Les Launes - BEUIL","",0.0,0.0,,,0,STOPAREA:01950,,
STOPPOINT:01081,,"Tête Du Sapet - PEONE-VALBERG","",0.0,0.0,,,0,STOPAREA:01951,,
STOPPOINT:01082,,"Station - PEONE-VALBERG","",44.096204,6.93087,,,0,,,
STOPPOINT:01134,,"Gilette - Les Pompiers - A - GILETTE","",43.841223,7.189795,,,0,STOPAREA:01906,,
STOPPOINT:01135,,"Gilette - L'oliveraie - A - GILETTE","",43.843251,7.184478,,,0,STOPAREA:01908,,
STOPPOINT:01136,,"Gilette - La Carrière - A - GILETTE","",43.840977,7.178947,,,0,,,
STOPPOINT:01137,,"Gilette - Collebelle - A - GILETTE","",43.854869,7.143182,,,0,STOPAREA:01912,,
STOPPOINT:01139,,"La Ciavarlina - TOUDON","",43.863708,7.112452,,,0,STOPAREA:01913,,
STOPPOINT:01140,,"Toudon - Vescous - A - TOUDON","",43.865055,7.105706,,,0,,,
STOPPOINT:01141,,"Pierrefeu - Mairie - A - PIERREFEU","",43.864083,7.092425,,,0,STOPAREA:01914,,
STOPPOINT:01142,,"Pierrefeu - Le Coulet - A - PIERREFEU","",43.860532,7.088566,,,0,STOPAREA:01914,,
STOPPOINT:01143,,"Roquesteron - Le Ranc - A - ROQUESTERON - P","",43.857706,7.043845,,,0,STOPAREA:01915,,
STOPPOINT:01144,,"Roquesteron - Fines Roches - A - ROQUESTERON - P","",43.860786,7.023957,,,0,STOPAREA:01916,,
STOPPOINT:01147,,"Roquesteron - L'Adrech - A - ROQUESTERON - P","",43.875685,7.003488,,,0,,,
STOPPOINT:01149,,"Sigale - Fournas - A - SIGALE","",43.87621,6.977323,,,0,STOPAREA:01924,,
STOPPOINT:01154,,"Revest les Roches - Village - REVEST-LS-ROCHE","",43.881455,7.156369,,,0,STOPAREA:01830,,
STOPPOINT:01155,,"Tourette du chateau - Village - TOURETTE-DU-CHT","",43.882205,7.143479,,,0,STOPAREA:01831,,
STOPPOINT:01156,,"Toudon - Village - TOUDON","",43.901493,7.112488,,,0,STOPAREA:01832,,
STOPPOINT:01157,,"Ascros - Village - ASCROS","",43.920716,7.014463,,,0,STOPAREA:01833,,
STOPPOINT:01176,,"Tananarive - ANTIBES","",43.604778,7.123218,,,0,,,
STOPPOINT:01182,,"Village - BEZAUDUN-LES-AL","",43.807679,7.096375,,,0,,,
STOPPOINT:01197,,"Collège de la Sine - VENCE","",43.721553,7.083259,,,0,STOPAREA:03188,,
STOPPOINT:01201,,"La More - GRASSE","",43.650505,6.94885,,,0,,,
STOPPOINT:01202,,"La More - GRASSE","",43.649797,6.949922,,,0,,,
STOPPOINT:01209,,"Place de la Faïsse - GREOLIERES","",43.796383,6.942855,,,0,STOPAREA:02241,,
STOPPOINT:01214,,"Sainte Marguerite - GRASSE","",43.646452,6.952952,,,0,,,
STOPPOINT:01215,,"Sainte Marguerite - GRASSE","",43.646314,6.953176,,,0,,,
STOPPOINT:01216,,"Collège Blanqui - PUGET-THENIERS","",43.95664,6.894979,,,0,STOPAREA:01819,,
STOPPOINT:01221,,"Place de Malausséne - MALAUSSENE","",43.927327,7.130996,,,0,STOPAREA:01816,,
STOPPOINT:01224,,"Village - COARAZE","",43.865294,7.293314,,,0,STOPAREA:01606,,
STOPPOINT:01226,,"La Ginestière - CARROS","",43.784664,7.184345,,,0,,,
STOPPOINT:01228,,"Place Camous - ESCARENE (L')","",43.834524,7.354547,,,0,,,
STOPPOINT:01229,,"Gaston De Fontmichel - GRASSE","",43.636465,6.95657,,,0,,,
STOPPOINT:01230,,"Gaston De Fontmichel - GRASSE","",43.636059,6.956815,,,0,,,
STOPPOINT:01232,,"CEG G. Philippe - R - CANNES","",43.570432,6.962571,,,0,,,
STOPPOINT:01249,,"La Vernéa - CONTES","",43.805304,7.336224,,,0,STOPAREA:01539,,
STOPPOINT:01254,,"Corniche Benard Lot - MOUANS SARTOUX","",43.624249,6.974284,,,0,,,
STOPPOINT:01256,,"Aimé Legal - MOUANS SARTOUX","",43.622134,6.973474,,,0,,,
STOPPOINT:01258,,"Chez Robert - GRASSE","",43.639824,6.97525,,,0,,,
STOPPOINT:01265,,"Bonson - Village - BONSON","",43.863048,7.188724,,,0,STOPAREA:01829,,
STOPPOINT:01266,,"Grand Jardin - MOUANS SARTOUX","",43.619605,6.975838,,,0,,,
STOPPOINT:01267,,"Grand Jardin - MOUANS SARTOUX","",43.6191,6.975759,,,0,STOPAREA:02141,,
STOPPOINT:01274,,"La Trinité - TRINITE (LA)","",43.741918,7.311838,,,0,,,
STOPPOINT:01275,,"Corniche Benard 1 - MOUANS SARTOUX","",43.625653,6.975457,,,0,,,
STOPPOINT:01281,,"Gare Routière - MENTON","",43.777442,7.493949,,,0,STOPAREA:03608,,
STOPPOINT:01286,,"Gare SNCF - CAGNES-SUR-MER","",43.657814,7.147616,,,0,STOPAREA:00758,,
STOPPOINT:01287,,"Corniche Benard 4 - MOUANS SARTOUX","",43.629202,6.975824,,,0,STOPAREA:02141,,
STOPPOINT:01288,,"Corniche Benard 3 - MOUANS SARTOUX","",43.631823,6.975021,,,0,,,
STOPPOINT:01289,,"Les 4 Chemins - S.PAUL-DE-VENCE","",43.68593,7.130642,,,0,,,
STOPPOINT:01291,,"Carignan - GRASSE","",43.644403,6.978078,,,0,,,
STOPPOINT:01292,,"Gare Routière - GRASSE","",43.660994,6.92308,,,0,STOPAREA:01598,,
STOPPOINT:01293,,"Les Lavandières - GRASSE","",43.641918,6.979822,,,0,,,
STOPPOINT:01294,,"Chapelle St Mathieu - GRASSE","",43.660004,6.95503,,,0,,,
STOPPOINT:01297,,"Explora - GRASSE","",43.651969,6.947677,,,0,,,
STOPPOINT:01298,,"Explora - GRASSE","",43.65273,6.946812,,,0,STOPAREA:02154,,
STOPPOINT:01300,,"Rocade - VENCE","",43.719916,7.112454,,,0,,,
STOPPOINT:01301,,"Hotel de Ville - CANNES","",43.550903,7.011754,,,0,STOPAREA:00552,,
STOPPOINT:01307,,"Centre Commercial - S.LAURENT-D-VAR","",43.659048,7.195414,,,0,STOPAREA:00756,,
STOPPOINT:01309,,"Aéroport Terminal 1 - NICE","",0.0,0.0,,,0,,,
STOPPOINT:01310,,"Aéroport Terminal 2 - NICE","",43.660997,7.205079,,,0,,,
STOPPOINT:01312,,"Les Campelières - LE CANNET","",43.582211,7.010029,,,0,,,
STOPPOINT:01313,,"Le Devens - MOUGINS","",43.606634,7.011728,,,0,,,
STOPPOINT:01318,,"Village - BENDEJUN","",43.838993,7.293819,,,0,STOPAREA:03138,,
STOPPOINT:01322,,"Village - BROC (LE)","",43.809002,7.168592,,,0,STOPAREA:01798,,
STOPPOINT:01325,,"Carros Pagnol - A - CARROS","",43.778616,7.18723,,,0,,,
STOPPOINT:01328,,"Village - COARAZE","",43.865237,7.2933,,,0,STOPAREA:01606,,
STOPPOINT:01334,,"Gilette - Place Dr Morani - A - GILETTE","",43.849492,7.163628,,,0,STOPAREA:01908,,
STOPPOINT:01338,,"Village - LUCERAM","",43.884337,7.360563,,,0,STOPAREA:01607,,
STOPPOINT:01340,,"Village - PEILLE","",43.804628,7.404473,,,0,STOPAREA:00924,,
STOPPOINT:01354,,"Sigale - Village - A - SIGALE","",43.872849,6.964513,,,0,,,
STOPPOINT:01355,,"Place - TOUET-ESCARENE","",43.8479,7.362688,,,0,STOPAREA:00972,,
STOPPOINT:01362,,"Place de Rebat - A - TRINITE (LA)","",0.0,0.0,,,0,,,
STOPPOINT:01363,,"Négron - TRINITE (LA)","",43.745115,7.321746,,,0,,,
STOPPOINT:01365,,"Baccia Donna - TRINITE (LA)","",43.748345,7.335944,,,0,STOPAREA:01244,,
STOPPOINT:01366,,"Roland - TRINITE (LA)","",43.748318,7.344596,,,0,,,
STOPPOINT:01367,,"Lavelan - TRINITE (LA)","",43.747871,7.349156,,,0,,,
STOPPOINT:01368,,"Castel St Pierre - TRINITE (LA)","",43.749344,7.375395,,,0,STOPAREA:00794,,
STOPPOINT:01369,,"Camp Bollin - TRINITE (LA)","",43.750311,7.379704,,,0,,,
STOPPOINT:01370,,"Chemin de la Desse - CARROS","",43.780294,7.186468,,,0,,,
STOPPOINT:01371,,"Le Rondeau - TRINITE (LA)","",43.750562,7.382497,,,0,STOPAREA:00905,,
STOPPOINT:01372,,"Le Moulin Neuf - PEILLE","",43.797166,7.381807,,,0,,,
STOPPOINT:01374,,"Centre Ménager - PEILLE","",43.792559,7.377468,,,0,,,
STOPPOINT:01375,,"Andrio - DRAP","",43.766642,7.336226,,,0,,,
STOPPOINT:01376,,"Albert 1er / Phocéens - NICE","",43.695374,7.269247,,,0,,,
STOPPOINT:01377,,"Entrevaux - Village - R - ENTREVAUX","",43.949259,6.809986,,,0,,,
STOPPOINT:01379,,"Risso Palais - NICE","",43.708001,7.284521,,,0,,,
STOPPOINT:01382,,"Le Touron - BEUIL","",44.090077,6.992631,,,0,,,
STOPPOINT:01383,,"Le Touron - BEUIL","",44.091144,6.992811,,,0,,,
STOPPOINT:01384,,"Rubi - RIGAUD","",44.006163,6.989609,,,0,,,
STOPPOINT:01386,,"Rubi - RIGAUD","",44.006289,6.98966,,,0,,,
STOPPOINT:01388,,"Sainte Catherine - TURBIE (LA)","",43.744944,7.39479,,,0,STOPAREA:00915,,
STOPPOINT:01390,,"Saint Martin - PEILLE","",43.768876,7.399941,,,0,,,
STOPPOINT:01393,,"Saint Pancrace - PEILLE","",43.79255,7.400193,,,0,STOPAREA:00908,,
STOPPOINT:01394,,"Coq Hardi - VENCE","",43.705341,7.132689,,,0,,,
STOPPOINT:01396,,"CFAB - ANTIBES","",43.606489,7.072261,,,0,,,
STOPPOINT:01400,,"Saint Martin - PEILLE","",43.768627,7.399994,,,0,STOPAREA:00907,,
STOPPOINT:01403,,"Le Rondeau - TRINITE (LA)","",43.750622,7.382594,,,0,,,
STOPPOINT:01404,,"Square Toja - NICE","",43.700436,7.278415,,,0,,,
STOPPOINT:01405,,"Camp Bollin - TRINITE (LA)","",43.750463,7.379678,,,0,STOPAREA:00905,,
STOPPOINT:01407,,"Castel St Pierre - TRINITE (LA)","",43.749434,7.375796,,,0,,,
STOPPOINT:01408,,"Lavelan - TRINITE (LA)","",43.747835,7.348351,,,0,,,
STOPPOINT:01409,,"Rond Point de la Manda - CARROS","",43.765763,7.201837,,,0,,,
STOPPOINT:01410,,"Roland - TRINITE (LA)","",43.748327,7.344756,,,0,,,
STOPPOINT:01411,,"Baccia Donna - TRINITE (LA)","",43.74836,7.336447,,,0,,,
STOPPOINT:01413,,"Pont de Figour - TRINITE (LA)","",43.747495,7.331023,,,0,,,
STOPPOINT:01414,,"Pont de Figour - TRINITE (LA)","",43.747574,7.331125,,,0,,,
STOPPOINT:01416,,"Négron - TRINITE (LA)","",43.745159,7.322704,,,0,,,
STOPPOINT:01418,,"Place Rebat - TRINITE (LA)","",43.743585,7.317334,,,0,,,
STOPPOINT:01419,,"Pont de l'Ariane - TRINITE (LA)","",43.734075,7.302098,,,0,,,
STOPPOINT:01421,,"Saint Roman MC - MONACO","",43.749825,7.437219,,,0,STOPAREA:03373,,
STOPPOINT:01423,,"Bois De Boulogne - NICE","",43.672825,7.201813,,,0,,,
STOPPOINT:01425,,"Villa Vicat - PEILLE","",43.794618,7.378023,,,0,,,
STOPPOINT:01426,,"Office Tourisme - CAGNES-SUR-MER","",43.657708,7.167411,,,0,,,
STOPPOINT:01427,,"Foch (Lycée Matisse) - VENCE","",43.723284,7.105903,,,0,STOPAREA:01629,,
STOPPOINT:01428,,"Foch (Lycée Matisse) - VENCE","",43.724098,7.105809,,,0,STOPAREA:01629,,
STOPPOINT:01429,,"Andrio - DRAP","",43.766536,7.336279,,,0,,,
STOPPOINT:01437,,"Pont de la Roma - TRINITE (LA)","",43.744381,7.314326,,,0,,,
STOPPOINT:01438,,"Combe du Rai - TOURRETTES/LOUP","",43.720587,7.076848,,,0,,,
STOPPOINT:01474,,"Bavastro - NICE","",43.700937,7.285827,,,0,,,
STOPPOINT:01475,,"Bavastro - NICE","",43.701526,7.284168,,,0,,,
STOPPOINT:01483,,"Mairie Roquebrune - ROQUEBRUNE - CA","",43.757908,7.474139,,,0,,,
STOPPOINT:01486,,"Victoria - ROQUEBRUNE - CA","",43.75726,7.48172,,,0,,,
STOPPOINT:01487,,"Victoria - ROQUEBRUNE - CA","",43.757242,7.481546,,,0,,,
STOPPOINT:01488,,"Les Plages - ROQUEBRUNE - CA","",43.759478,7.483005,,,0,,,
STOPPOINT:01489,,"Le Solenzara - ROQUEBRUNE - CA","",43.764698,7.487405,,,0,STOPAREA:00548,,
STOPPOINT:01490,,"Le Solenzara - ROQUEBRUNE - CA","",43.764298,7.486668,,,0,,,
STOPPOINT:01495,,"Massolin - ROQUEBRUNE - CA","",43.761446,7.463386,,,0,,,
STOPPOINT:01496,,"Saint Roman - ROQUEBRUNE - CA","",43.752215,7.439173,,,0,,,
STOPPOINT:01498,,"La Boucherie - ROQUEBRUNE - CA","",43.758076,7.450196,,,0,,,
STOPPOINT:01499,,"Les 4 Chemins - ROQUEBRUNE - CA","",43.760543,7.452768,,,0,,,
STOPPOINT:01501,,"Datcha - ROQUEBRUNE - CA","",43.762494,7.455121,,,0,,,
STOPPOINT:01502,,"2ième Escalier - ROQUEBRUNE - CA","",43.762102,7.458459,,,0,STOPAREA:00543,,
STOPPOINT:01504,,"La Torraca - ROQUEBRUNE - CA","",43.759079,7.467028,,,0,,,
STOPPOINT:01505,,"Casernes SNCF - ROQUEBRUNE - CA","",43.763096,7.479469,,,0,,,
STOPPOINT:01507,,"Bien Situèe - ROQUEBRUNE - CA","",43.760408,7.477822,,,0,,,
STOPPOINT:01508,,"1er Hameau - ROQUEBRUNE - CA","",43.762556,7.471976,,,0,,,
STOPPOINT:01509,,"Massolin - ROQUEBRUNE - CA","",43.760349,7.465064,,,0,,,
STOPPOINT:01510,,"1er Escalier - ROQUEBRUNE - CA","",43.762239,7.462546,,,0,STOPAREA:00544,,
STOPPOINT:01512,,"La Tranchée - ROQUEBRUNE - CA","",43.755235,7.447795,,,0,,,
STOPPOINT:01536,,"Sclos de Contes - CONTES","",43.813677,7.342795,,,0,STOPAREA:01541,,
STOPPOINT:01545,,"Monté Carlo (Casino) - MONACO","",43.739811,7.425122,,,0,,,
STOPPOINT:01546,,"Place D'Armes - A - MONACO","",43.732184,7.418613,,,0,STOPAREA:03373,,
STOPPOINT:01549,,"Place Bermond - VALBONNE","",43.621759,7.03922,,,0,,,
STOPPOINT:01552,,"Poste Thiers SNCF - NICE","",43.703441,7.260287,,,0,STOPAREA:00531,,
STOPPOINT:01553,,"Poste Thiers SNCF - R - NICE","",43.703284,7.260327,,,0,STOPAREA:00531,,
STOPPOINT:01556,,"Les Launes - BEUIL","",0.0,0.0,,,0,STOPAREA:01950,,
STOPPOINT:01578,,"Z.A La Manda - CARROS","",43.764078,7.199341,,,0,,,
STOPPOINT:01579,,"Carros - Village - A - CARROS","",43.792418,7.185429,,,0,STOPAREA:01799,,
STOPPOINT:01582,,"Village - BOUYON","",43.825255,7.123046,,,0,STOPAREA:01787,,
STOPPOINT:01589,,"Gilette - Senegoge - A - GILETTE","",43.84446,7.186547,,,0,STOPAREA:01906,,
STOPPOINT:01593,,"Gare Routière - GRASSE","",43.661064,6.923164,,,0,STOPAREA:01598,,
STOPPOINT:01609,,"Peira Cava - LUCERAM","",43.932586,7.361554,,,0,STOPAREA:01618,,
STOPPOINT:01612,,"La Trinité - TRINITE (LA)","",43.74193,7.311536,,,0,,,
STOPPOINT:01615,,"Pré du Lac - CHATNEUF-GRASSE","",43.680013,6.971736,,,0,,,
STOPPOINT:01619,,"Collège Rabelais - ESCARENE (L')","",43.840015,7.352377,,,0,STOPAREA:02654,,
STOPPOINT:01646,,"Gare SNCF RN7 - R - S.LAURENT-D-VAR","",0.0,0.0,,,0,STOPAREA:00756,,
STOPPOINT:01647,,"Antibes - Directeur Chaudon - ANTIBES","",43.580035,7.118548,,,0,,,
STOPPOINT:01648,,"Les Genets - CAP D'AIL","",43.726879,7.397,,,0,STOPAREA:00541,,
STOPPOINT:01651,,"Centre des Impots - CAGNES-SUR-MER","",43.656314,7.15521,,,0,,,
STOPPOINT:01652,,"Centre des Impots - CAGNES-SUR-MER","",43.656267,7.155321,,,0,STOPAREA:00758,,
STOPPOINT:01653,,"Chemin Ste Anne - PEILLE","",43.79864,7.382641,,,0,,,
STOPPOINT:01655,,"Boyer - NICE","",43.702176,7.281608,,,0,,,
STOPPOINT:01656,,"Boyer - NICE","",43.702637,7.280498,,,0,,,
STOPPOINT:01681,,"Vauban - CANNES","",0.0,0.0,,,0,STOPAREA:01682,,
STOPPOINT:01684,,"La Paoute - GRASSE","",43.631926,6.957635,,,0,,,
STOPPOINT:01685,,"Sophie Laffitte - VALBONNE","",43.615425,7.054109,,,0,,,
STOPPOINT:01686,,"Sophie Laffitte - VALBONNE","",43.615411,7.054492,,,0,STOPAREA:01703,,
STOPPOINT:01688,,"Espaces de Sophia - VALBONNE","",43.61403,7.046794,,,0,STOPAREA:01707,,
STOPPOINT:01689,,"Garbejaire - VALBONNE","",43.6237,7.04507,,,0,STOPAREA:02554,,
STOPPOINT:01690,,"Garbejaire - VALBONNE","",43.623337,7.045131,,,0,STOPAREA:02554,,
STOPPOINT:01691,,"La Paoute - GRASSE","",43.63193,6.957771,,,0,,,
STOPPOINT:01692,,"Route De Pégomas - R - GRASSE","",43.638561,6.933622,,,0,,,
STOPPOINT:01693,,"Eganaude - VALBONNE","",43.622981,7.057864,,,0,,,
STOPPOINT:01694,,"Eganaude - VALBONNE","",43.623002,7.057617,,,0,STOPAREA:01702,,
STOPPOINT:01695,,"IUT-INRIA - VALBONNE","",43.616493,7.068001,,,0,,,
STOPPOINT:01701,,"Chappes INRA - VALBONNE","",43.61514,7.080422,,,0,,,
STOPPOINT:01704,,"Chappes INRA - VALBONNE","",43.615023,7.080055,,,0,STOPAREA:01707,,
STOPPOINT:01711,,"Grave De Peille Mairie - PEILLE","",43.796285,7.379322,,,0,,,
STOPPOINT:01712,,"Grave De Peille Mairie - PEILLE","",43.796463,7.379394,,,0,,,
STOPPOINT:01740,,"Plan de Blavet - DRAP","",43.7653,7.329134,,,0,,,
STOPPOINT:01749,,"Comte De Falicon - NICE","",43.72608,7.255873,,,0,STOPAREA:00532,,
STOPPOINT:01750,,"Comte De Falicon - NICE","",43.726195,7.255478,,,0,STOPAREA:00532,,
STOPPOINT:01772,,"L'Ecole - ESCARENE (L')","",43.835523,7.353302,,,0,,,
STOPPOINT:01785,,"Les Campelières - MOUGINS","",43.582218,7.010084,,,0,,,
STOPPOINT:01788,,"Castagniers - R - CASTAGNIERS","",43.790859,7.214645,,,0,,,
STOPPOINT:01791,,"Cimetière - MONACO","",43.728934,7.412853,,,0,,,
STOPPOINT:01793,,"Place D'Armes - MONACO","",43.731886,7.418508,,,0,,,
STOPPOINT:01794,,"Monté Carlo (Casino) - MONACO","",43.741066,7.426173,,,0,,,
STOPPOINT:01835,,"Les Roumiguières - R - GRASSE","",43.622912,6.925299,,,0,,,
STOPPOINT:01839,,"Batterie - VALLAURIS","",43.553003,7.058709,,,0,,,
STOPPOINT:01883,,"Gare SNCF - VILLENEUVE-LBT","",43.630227,7.134131,,,0,,,
STOPPOINT:01892,,"Eze Gare (SNCF) - EZE","",43.722771,7.357235,,,0,,,
STOPPOINT:01955,,"Paradis - BAR/LOUP (LE)","",43.713304,6.985716,,,0,,,
STOPPOINT:01958,,"Grimaldi Forum - MONACO","",43.744123,7.43106,,,0,,,
STOPPOINT:01959,,"Lingostière C.C. - R - NICE","",43.727685,7.18874,,,0,STOPAREA:01888,,
STOPPOINT:01961,,"Le Cimetière - ROURET (LE)","",43.672453,6.999041,,,0,,,
STOPPOINT:01962,,"Sainte Hélène Promenade - NICE","",43.683123,7.234281,,,0,,,
STOPPOINT:01963,,"Congrés Promenade - NICE","",43.694687,7.26293,,,0,,,
STOPPOINT:01964,,"Route De Pégomas - A - GRASSE","",43.638019,6.933573,,,0,,,
STOPPOINT:01967,,"Place Millo - PEILLON","",43.765735,7.343663,,,0,STOPAREA:01608,,
STOPPOINT:01968,,"Place Millo - PEILLON","",43.766454,7.343171,,,0,STOPAREA:01608,,
STOPPOINT:01969,,"Promenade A. Passeron - PEILLON","",43.765399,7.347098,,,0,,,
STOPPOINT:01970,,"Châteauvieux - PEILLON","",43.767513,7.351705,,,0,STOPAREA:01245,,
STOPPOINT:01971,,"Châteauvieux - PEILLON","",43.767398,7.351418,,,0,,,
STOPPOINT:01972,,"La Soutrana - PEILLON","",43.76782,7.364235,,,0,,,
STOPPOINT:01973,,"La Soutrana - PEILLON","",43.767889,7.364122,,,0,,,
STOPPOINT:01974,,"Hôtel De Ville - PEILLON","",43.768954,7.367338,,,0,,,
STOPPOINT:01975,,"Hôtel De Ville - PEILLON","",43.768937,7.367203,,,0,,,
STOPPOINT:01976,,"Le Moulin - PEILLON","",43.771343,7.372433,,,0,,,
STOPPOINT:01977,,"Le Moulin - PEILLON","",43.771526,7.372368,,,0,,,
STOPPOINT:01978,,"Le Jardin - PEILLON","",43.78184,7.372169,,,0,,,
STOPPOINT:01979,,"Le Jardin - PEILLON","",43.781868,7.372043,,,0,,,
STOPPOINT:01980,,"Le Square - PEILLON","",43.784384,7.373619,,,0,,,
STOPPOINT:01981,,"Le Square - PEILLON","",43.784426,7.373503,,,0,,,
STOPPOINT:01982,,"La Cité - PEILLON","",43.788828,7.374246,,,0,STOPAREA:01608,,
STOPPOINT:01983,,"La Cité - PEILLON","",43.788878,7.374141,,,0,STOPAREA:01608,,
STOPPOINT:01984,,"Les Mazues - PEILLON","",43.768073,7.354899,,,0,STOPAREA:01608,,
STOPPOINT:01985,,"11 Novembre - R - GRASSE","",43.663012,6.926311,,,0,,,
STOPPOINT:01986,,"Ossola - R - GRASSE","",43.657711,6.925476,,,0,,,
STOPPOINT:01987,,"Carnot - R - GRASSE","",43.655641,6.921952,,,0,,,
STOPPOINT:01988,,"Les Casernes - R - GRASSE","",43.650879,6.922027,,,0,STOPAREA:01598,,
STOPPOINT:01989,,"La Torraca - ROQUEBRUNE - CA","",43.759408,7.46664,,,0,,,
STOPPOINT:01990,,"La Boucherie - ROQUEBRUNE - CA","",43.756933,7.449059,,,0,,,
STOPPOINT:01991,,"Saint Roman MC - MONACO","",43.752207,7.439215,,,0,,,
STOPPOINT:01996,,"Cimetière de l'Abadie - R - CANNES","",43.567945,6.958317,,,0,,,
STOPPOINT:01998,,"Sophia Gare Routière - VALBONNE","",43.624023,7.037091,,,0,STOPAREA:01702,,
STOPPOINT:02002,,"Fontvieille Albert 2 - MONACO","",43.729285,7.416019,,,0,,,
STOPPOINT:02005,,"Vauban Université - NICE","",43.709261,7.287667,,,0,,,
STOPPOINT:02006,,"Cours Honoré Cresp - A - GRASSE","",43.656845,6.920264,,,0,,,
STOPPOINT:02007,,"Les Neiges - GREOLIERES","",43.829917,6.967624,,,0,STOPAREA:02243,,
STOPPOINT:02008,,"St Etienne - LA COLLE/LOUP","",43.67495,7.122921,,,0,STOPAREA:01956,,
STOPPOINT:02009,,"St Etienne - LA COLLE/LOUP","",43.675097,7.122695,,,0,STOPAREA:01956,,
STOPPOINT:02010,,"Le Défoussant - LA COLLE/LOUP","",43.680673,7.118871,,,0,,,
STOPPOINT:02011,,"Le Défoussant - LA COLLE/LOUP","",43.681169,7.118207,,,0,,,
STOPPOINT:02012,,"Le Plantier - CHATNEUF-GRASSE","",43.676122,6.973786,,,0,STOPAREA:01594,,
STOPPOINT:02014,,"Entrevaux - Village - A - ENTREVAUX","",43.9494,6.809964,,,0,STOPAREA:01820,,
STOPPOINT:02021,,"Pont De L'Union - ROQUEBRUNE - CA","",43.765887,7.486243,,,0,STOPAREA:00543,,
STOPPOINT:02024,,"Kérylos - BEAULIEU/MER","",43.704779,7.333269,,,0,,,
STOPPOINT:02025,,"Baie des Fourmis - BEAULIEU/MER","",43.702932,7.329664,,,0,,,
STOPPOINT:02028,,"Paradis - BAR/LOUP (LE)","",43.713306,6.986178,,,0,,,
STOPPOINT:02029,,"Amiral de Grasse - BAR/LOUP (LE)","",43.698386,6.981502,,,0,,,
STOPPOINT:02033,,"Le Devens - MOUGINS","",43.606359,7.011671,,,0,,,
STOPPOINT:02034,,"Sainte Catherine - TURBIE (LA)","",43.74507,7.394824,,,0,,,
STOPPOINT:02039,,"Batterie - NICE","",43.688418,7.306709,,,0,,,
STOPPOINT:02042,,"Les Crêtes - NICE","",43.691985,7.294188,,,0,,,
STOPPOINT:02044,,"Parc Louisa - NICE","",43.696201,7.292417,,,0,,,
STOPPOINT:02047,,"Gustavin - NICE","",43.696717,7.290034,,,0,,,
STOPPOINT:02048,,"Barnessa - EZE","",43.730626,7.376971,,,0,,,
STOPPOINT:02063,,"Roquesteron-Grasse - ROQUESTERON - P","",43.872309,7.0069,,,0,,,
STOPPOINT:02064,,"Gilette - La Madeleine - A - GILETTE","",43.838306,7.189861,,,0,,,
STOPPOINT:02066,,"La Garde - BLAUSASC","",43.807028,7.356882,,,0,,,
STOPPOINT:02067,,"La Garde - BLAUSASC","",43.80741,7.356867,,,0,,,
STOPPOINT:02068,,"Col de Nice - ESCARENE (L')","",43.826325,7.350484,,,0,,,
STOPPOINT:02069,,"Col de Nice - ESCARENE (L')","",43.826306,7.350271,,,0,STOPAREA:02654,,
STOPPOINT:02070,,"Pissandrus - ESCARENE (L')","",43.830461,7.351173,,,0,,,
STOPPOINT:02071,,"Pissandrus - ESCARENE (L')","",43.83037,7.350979,,,0,,,
STOPPOINT:02073,,"La Fontaine - ESCARENE (L')","",43.836805,7.355044,,,0,,,
STOPPOINT:02074,,"Les Mortissonts - LUCERAM","",43.870378,7.351202,,,0,,,
STOPPOINT:02075,,"Les Mortissonts - LUCERAM","",43.869844,7.351024,,,0,STOPAREA:01607,,
STOPPOINT:02076,,"Chemin Des Mounts - LUCERAM","",43.874179,7.351473,,,0,,,
STOPPOINT:02077,,"Chemin Des Mounts - LUCERAM","",43.874246,7.351298,,,0,,,
STOPPOINT:02079,,"Place De La République - LUCERAM","",43.881546,7.358719,,,0,,,
STOPPOINT:02081,,"Le Destey - CONTES","",43.786178,7.342858,,,0,STOPAREA:01279,,
STOPPOINT:02082,,"Le Destey - CONTES","",43.786244,7.342974,,,0,STOPAREA:01282,,
STOPPOINT:02084,,"Chemin de Roma - TRINITE (LA)","",43.745608,7.317886,,,0,STOPAREA:01244,,
STOPPOINT:02085,,"Les Chênes Verts - TRINITE (LA)","",43.748942,7.320626,,,0,,,
STOPPOINT:02086,,"Les Chênes Verts - TRINITE (LA)","",43.748727,7.320528,,,0,,,
STOPPOINT:02088,,"Ancien Octroi - NICE","",43.72257,7.289853,,,0,,,
STOPPOINT:02093,,"Lycée Carnot - A - CANNES","",43.564167,7.016507,,,0,STOPAREA:03993,,
STOPPOINT:02094,,"Lycée Carnot - R - CANNES","",43.564167,7.016507,,,0,STOPAREA:01682,,
STOPPOINT:02104,,"Les Caillades - LA COLLE/LOUP","",43.673896,7.119926,,,0,STOPAREA:01956,,
STOPPOINT:02107,,"Le Taude - VENCE","",43.701445,7.131851,,,0,STOPAREA:01669,,
STOPPOINT:02108,,"Le Taude - VENCE","",43.701154,7.131904,,,0,STOPAREA:01669,,
STOPPOINT:02109,,"Pré du Lac (511) - CHATNEUF-GRASSE","",43.680808,6.972009,,,0,STOPAREA:01594,,
STOPPOINT:02110,,"Pré du Lac (511) - CHATNEUF-GRASSE","",43.680831,6.97169,,,0,STOPAREA:02671,,
STOPPOINT:02115,,"Bautugan - CAP D'AIL","",43.724949,7.401578,,,0,,,
STOPPOINT:02122,,"Abattoirs - NICE","",43.718196,7.284762,,,0,,,
STOPPOINT:02124,,"Viking - MENTON","",43.766176,7.487807,,,0,STOPAREA:00549,,
STOPPOINT:02125,,"Les Rigamels - ROQUEFT-LS-PINS","",43.678914,7.028913,,,0,,,
STOPPOINT:02130,,"Tende - NICE","",43.711234,7.284903,,,0,,,
STOPPOINT:02131,,"Gustave V - NICE","",43.695036,7.265613,,,0,,,
STOPPOINT:02132,,"Le Neroli - GRASSE","",43.644365,6.94354,,,0,,,
STOPPOINT:02135,,"Le Cougnet - CARROS","",43.782989,7.182069,,,0,,,
STOPPOINT:02136,,"Le Cougnet - CARROS","",43.782969,7.182214,,,0,,,
STOPPOINT:02137,,"Jacinthes - A - GRASSE","",43.644854,6.939999,,,0,STOPAREA:01878,,
STOPPOINT:02143,,"Les Condamines - R - AURIBEAU/SIAGNE","",43.610277,6.916021,,,0,,,
STOPPOINT:02148,,"Cantaron/Drap - Gare SNCF - DRAP","",43.76088,7.318225,,,0,STOPAREA:00973,,
STOPPOINT:02210,,"Bramafan - COURMES","",43.761458,6.988992,,,0,STOPAREA:02239,,
STOPPOINT:02219,,"Ecole Prim. du Bayle - AURIBEAU/SIAGNE","",43.605257,6.913402,,,0,,,
STOPPOINT:02420,,"Ecole St Jean 1 - ROQUETTE/SIAGNE","",43.580098,6.948604,,,0,STOPAREA:01879,,
STOPPOINT:02424,,"Santoline - NICE","",43.675445,7.201325,,,0,,,
STOPPOINT:02425,,"Robini - NICE","",43.682759,7.198773,,,0,,,
STOPPOINT:02427,,"Tende Gendarmerie - NICE","",43.712497,7.28417,,,0,,,
STOPPOINT:02429,,"Saint Jean La Ro - A - ROQUETTE/SIAGNE","",43.581511,6.945122,,,0,,,
STOPPOINT:02431,,"Les Etains - CHATNEUF-GRASSE","",43.640261,6.993866,,,0,,,
STOPPOINT:02434,,"Les Bélugues - BIOT","",43.617698,7.058242,,,0,,,
STOPPOINT:02435,,"Les Bélugues - BIOT","",43.617654,7.058089,,,0,,,
STOPPOINT:02438,,"RD PT J. Fontmichel - GRASSE","",43.639689,6.976689,,,0,,,
STOPPOINT:02440,,"Pont Royal - VENCE","",43.723799,7.107137,,,0,,,
STOPPOINT:02441,,"Les Gourettes - MOUGINS","",43.615143,6.974717,,,0,,,
STOPPOINT:02442,,"Office Tourisme - CAGNES-SUR-MER","",43.657598,7.167673,,,0,STOPAREA:00758,,
STOPPOINT:02443,,"Square Vahanian - CANNES","",43.55428,7.021699,,,0,,,
STOPPOINT:02444,,"Square Vahanian - CANNES","",43.55428,7.021699,,,0,,,
STOPPOINT:02447,,"Font De L'Orme - MOUGINS","",43.610325,7.020379,,,0,,,
STOPPOINT:02448,,"Font De L'Orme - MOUGINS","",43.611088,7.021062,,,0,,,
STOPPOINT:02449,,"Parking Coubertin - CANNES","",43.553608,6.96582,,,0,,,
STOPPOINT:02450,,"Parking Coubertin - A - CANNES","",43.553656,6.965917,,,0,,,
STOPPOINT:02474,,"Malausséne Gare - MALAUSSENE","",43.931096,7.116172,,,0,,,
STOPPOINT:02476,,"Chemin de la Desse - CARROS","",43.780763,7.186003,,,0,,,
STOPPOINT:02478,,"Village - BROC (LE)","",43.808945,7.16838,,,0,,,
STOPPOINT:02494,,"Le Bouteou - PEGOMAS","",43.587738,6.92633,,,0,,,
STOPPOINT:02527,,"Eze Gare (SNCF) - EZE","",43.722531,7.356865,,,0,,,
STOPPOINT:02539,,"Biot Gare - ANTIBES","",43.611442,7.126038,,,0,STOPAREA:00558,,
STOPPOINT:02565,,"Pont Charles Albert - GILETTE","",43.837691,7.19114,,,0,STOPAREA:01900,,
STOPPOINT:02566,,"Les Roumiguières - A - GRASSE","",43.622408,6.925094,,,0,,,
STOPPOINT:02572,,"Pont du Serre - ESCARENE (L')","",43.834185,7.357332,,,0,,,
STOPPOINT:02575,,"Centre Ménager - PEILLE","",43.793077,7.377413,,,0,,,
STOPPOINT:02576,,"Villa Vicat - PEILLE","",43.794743,7.378271,,,0,,,
STOPPOINT:02613,,"Xavier de Saissi - BENDEJUN","",43.834059,7.295047,,,0,,,
STOPPOINT:02635,,"Centre de Loisirs - CAGNES-SUR-MER","",43.656565,7.175915,,,0,,,
STOPPOINT:02636,,"Centre de Loisirs - CAGNES-SUR-MER","",43.657495,7.171514,,,0,STOPAREA:00758,,
STOPPOINT:02637,,"Chemin Ste Anne - PEILLE","",43.798623,7.382753,,,0,,,
STOPPOINT:02638,,"Cagnes sur mer - St Pierre - A - CAGNES-SUR-MER","",43.657945,7.164084,,,0,,,
STOPPOINT:02639,,"St Pierre - CAGNES-SUR-MER","",43.657545,7.164272,,,0,,,
STOPPOINT:02642,,"La Pinède - CAGNES-SUR-MER","",43.657981,7.159551,,,0,STOPAREA:00757,,
STOPPOINT:02643,,"La Pinède - CAGNES-SUR-MER","",43.657902,7.159675,,,0,STOPAREA:00758,,
STOPPOINT:02645,,"La Foux - CAGNES-SUR-MER","",43.65352,7.151717,,,0,STOPAREA:00758,,
STOPPOINT:02646,,"Villeneuve - Les Drapeaux - A - VILLENEUVE-LBT","",43.64225,7.142867,,,0,STOPAREA:00759,,
STOPPOINT:02647,,"France Outremer - VILLENEUVE-LBT","",43.642554,7.138435,,,0,STOPAREA:02106,,
STOPPOINT:02655,,"L'Escarène - ESCARENE (L')","",43.834481,7.354223,,,0,STOPAREA:02654,,
STOPPOINT:02656,,"L'Escarène - ESCARENE (L')","",43.834342,7.354182,,,0,STOPAREA:02654,,
STOPPOINT:02673,,"Pinéa - COARAZE","",43.853841,7.291004,,,0,STOPAREA:01555,,
STOPPOINT:02674,,"Cagnes - Hippodrome - A - CAGNES-SUR-MER","",43.654556,7.151319,,,0,,,
STOPPOINT:02675,,"Hippodrome - CAGNES-SUR-MER","",43.654394,7.151602,,,0,STOPAREA:00758,,
STOPPOINT:02684,,"Hauts Vaugrenier - VILLENEUVE-LBT","",43.633229,7.123213,,,0,STOPAREA:02106,,
STOPPOINT:02686,,"SKEMA - VALBONNE","",43.614016,7.055739,,,0,,,
STOPPOINT:02687,,"SKEMA - VALBONNE","",43.614175,7.055327,,,0,,,
STOPPOINT:02688,,"Pompidou - VALBONNE","",43.624812,7.049552,,,0,,,
STOPPOINT:02689,,"Pompidou - VALBONNE","",43.624582,7.049684,,,0,STOPAREA:01702,,
STOPPOINT:02707,,"Pont de Peille (300) - BLAUSASC","",43.768826,7.331684,,,0,,,
STOPPOINT:02720,,"Transformateur - TOURRETTES/LOUP","",43.709309,6.998749,,,0,,,
STOPPOINT:02723,,"Mounier - TOURRETTES/LOUP","",43.706972,7.002792,,,0,,,
STOPPOINT:02724,,"Les Valettes - TOURRETTES/LOUP","",43.704832,7.01012,,,0,STOPAREA:01637,,
STOPPOINT:02725,,"La Menuiserie - TOURRETTES/LOUP","",43.706699,7.028689,,,0,,,
STOPPOINT:02726,,"Saint Arnoux - TOURRETTES/LOUP","",43.705749,7.040964,,,0,,,
STOPPOINT:02727,,"Camassade - TOURRETTES/LOUP","",43.707224,7.045614,,,0,STOPAREA:01638,,
STOPPOINT:02728,,"Le Garage - TOURRETTES/LOUP","",43.708405,7.048617,,,0,,,
STOPPOINT:02741,,"Belgique - MONACO","",43.737385,7.418907,,,0,,,
STOPPOINT:02742,,"Les Genets - CAP D'AIL","",43.72694,7.396783,,,0,,,
STOPPOINT:02743,,"Californie - CANNES","",43.54859,7.037899,,,0,,,
STOPPOINT:02744,,"Les Serriers - TURBIE (LA)","",43.731221,7.390144,,,0,,,
STOPPOINT:02749,,"Gattieres - village - GATTIERES","",43.760642,7.175398,,,0,STOPAREA:01856,,
STOPPOINT:02758,,"Les Palmiers - NICE","",43.681912,7.198782,,,0,STOPAREA:01886,,
STOPPOINT:02772,,"Gattieres - Gattieres mairie - A - GATTIERES","",43.759488,7.175767,,,0,STOPAREA:01856,,
STOPPOINT:02773,,"Gattières - gattieres mairie - R - GATTIERES","",43.759488,7.175767,,,0,STOPAREA:01856,,
STOPPOINT:02780,,"Les 3 Moulins - ANTIBES","",43.605063,7.082107,,,0,,,
STOPPOINT:02787,,"Gattieres - chemin du clot - R - GATTIERES","",43.765622,7.176063,,,0,,,
STOPPOINT:02789,,"Rond Point de la Manda - CARROS","",43.765804,7.2013,,,0,,,
STOPPOINT:02790,,"Carros - Stade de Tennis - A - CARROS","",43.766925,7.200107,,,0,STOPAREA:01882,,
STOPPOINT:02791,,"Carros - Langevin - A - CARROS","",43.768883,7.196397,,,0,,,
STOPPOINT:02792,,"Carros - Saint Paul - R - CARROS","",0.0,0.0,,,0,,,
STOPPOINT:02793,,"Médiathèque - CARROS","",43.77386,7.192035,,,0,,,
STOPPOINT:02794,,"Carros - l'Aspre - R - CARROS","",43.774179,7.191048,,,0,STOPAREA:01763,,
STOPPOINT:02795,,"Carros - Le Beilouno - A - CARROS","",43.776111,7.190641,,,0,,,
STOPPOINT:02797,,"Carros - maison pour tous - A - CARROS","",43.772383,7.192436,,,0,,,
STOPPOINT:02798,,"Carros - les terrasses - A - CARROS","",43.767831,7.190516,,,0,,,
STOPPOINT:02799,,"Carros - les cigales - A - CARROS","",0.0,0.0,,,0,,,
STOPPOINT:02804,,"Saint Sébastien - CARROS","",43.801375,7.181914,,,0,,,
STOPPOINT:02805,,"Les Amandiers - CARROS","",43.769888,7.195601,,,0,,,
STOPPOINT:02806,,"Carros - l'estellan - R - CARROS","",43.777448,7.178399,,,0,,,
STOPPOINT:02807,,"Gattières - les oliviers - A - GATTIERES","",43.765303,7.177849,,,0,,,
STOPPOINT:02810,,"Le Riou - BAR/LOUP (LE)","",43.697445,6.977232,,,0,,,
STOPPOINT:02811,,"Collège Des Mimosas - MANDELIEU","",43.564877,6.939681,,,0,STOPAREA:02139,,
STOPPOINT:02812,,"Les Myosotis - R - CANNES","",43.567592,6.962827,,,0,,,
STOPPOINT:02815,,"Les Myosotis - A - CANNES","",43.56782,6.962593,,,0,,,
STOPPOINT:02819,,"Fondation Maeght - S.PAUL-DE-VENCE","",43.698547,7.118119,,,0,,,
STOPPOINT:02820,,"Palais De Justice - GRASSE","",43.656698,6.928975,,,0,,,
STOPPOINT:02822,,"Les 3 Moulins - ANTIBES","",43.603918,7.08068,,,0,,,
STOPPOINT:02828,,"David - BAR/LOUP (LE)","",43.712227,6.987177,,,0,,,
STOPPOINT:02829,,"Pont du Loup - GOURDON","",43.719541,6.991205,,,0,STOPAREA:01630,,
STOPPOINT:02830,,"David - BAR/LOUP (LE)","",43.711876,6.987525,,,0,,,
STOPPOINT:02831,,"Baumettes - VILLENEUVE-LBT","",43.638509,7.133453,,,0,STOPAREA:00557,,
STOPPOINT:02832,,"Baumettes - VILLENEUVE-LBT","",43.639051,7.133589,,,0,STOPAREA:02106,,
STOPPOINT:02833,,"Le Bosquet - GOURDON","",43.714088,6.987947,,,0,,,
STOPPOINT:02834,,"Maison Sicard - GOURDON","",43.716457,6.989431,,,0,,,
STOPPOINT:02835,,"Saint Antoine - TOURRETTES/LOUP","",43.705568,7.022962,,,0,,,
STOPPOINT:02836,,"Le Clapier - TOURRETTES/LOUP","",43.718426,7.07318,,,0,,,
STOPPOINT:02837,,"Saint Antoine - TOURRETTES/LOUP","",43.705574,7.022419,,,0,,,
STOPPOINT:02838,,"Le Clapier - TOURRETTES/LOUP","",43.718481,7.073031,,,0,,,
STOPPOINT:02839,,"Lycée Renoir - CAGNES-SUR-MER","",43.670506,7.150648,,,0,STOPAREA:02102,,
STOPPOINT:02841,,"Gattieres - Chemin Espeiroures - GATTIERES","",43.762825,7.174439,,,0,STOPAREA:01799,,
STOPPOINT:02845,,"Gattieres - Chemin du clot - A - GATTIERES","",43.765622,7.176063,,,0,,,
STOPPOINT:02847,,"Pompiers - VILLENEUVE-LBT","",43.641012,7.138417,,,0,STOPAREA:02106,,
STOPPOINT:02850,,"Parking du 8 Mai 1945 - VALLAURIS","",43.573445,7.05973,,,0,,,
STOPPOINT:02852,,"Le Bouteou - PEGOMAS","",43.588204,6.92658,,,0,,,
STOPPOINT:02853,,"Les Carpenédes - PEGOMAS","",43.583678,6.925348,,,0,,,
STOPPOINT:02854,,"La Fénerie - PEGOMAS","",43.582419,6.927062,,,0,STOPAREA:02114,,
STOPPOINT:02857,,"Collège Des Mimosas - MANDELIEU","",43.564615,6.939916,,,0,STOPAREA:02139,,
STOPPOINT:02860,,"Les Canebiers - ROQUETTE/SIAGNE","",43.594802,6.956609,,,0,,,
STOPPOINT:02861,,"Chemin De Pourcel - ROQUETTE/SIAGNE","",43.574957,6.960319,,,0,,,
STOPPOINT:02864,,"Village - S.PAUL-DE-VENCE","",43.699498,7.121808,,,0,STOPAREA:02100,,
STOPPOINT:02865,,"Route de St Paul - VENCE","",43.715436,7.116074,,,0,STOPAREA:01669,,
STOPPOINT:02873,,"Les Cavaliers - VILLENEUVE-LBT","",43.633064,7.130927,,,0,,,
STOPPOINT:02876,,"Le Ranc - ROQUESTERON - P","",43.857555,7.04317,,,0,STOPAREA:01915,,
STOPPOINT:02877,,"Fines Roches - ROQUESTERON - P","",43.860872,7.024308,,,0,,,
STOPPOINT:02878,,"Village - ROQUESTERON - P","",43.874221,7.005151,,,0,STOPAREA:01916,,
STOPPOINT:02879,,"Sigale - Village - R - SIGALE","",43.872892,6.964168,,,0,STOPAREA:01924,,
STOPPOINT:02880,,"Fournas - SIGALE","",43.876221,6.976699,,,0,,,
STOPPOINT:02881,,"L'Adrech - ROQUESTERON - P","",43.875726,7.003145,,,0,STOPAREA:01916,,
STOPPOINT:02882,,"Le Coulet - PIERREFEU","",43.860564,7.088393,,,0,STOPAREA:01914,,
STOPPOINT:02883,,"Mairie - R - PIERREFEU","",43.864337,7.092558,,,0,,,
STOPPOINT:02884,,"Vescous - TOUDON","",43.865089,7.10604,,,0,STOPAREA:01913,,
STOPPOINT:02885,,"Les Pompiers - GILETTE","",43.841209,7.189656,,,0,,,
STOPPOINT:02886,,"La Madeleine - GILETTE","",43.838498,7.189567,,,0,,,
STOPPOINT:02887,,"L'oliveraie - GILETTE","",43.84328,7.184294,,,0,,,
STOPPOINT:02888,,"Collebelle - GILETTE","",43.854684,7.142368,,,0,,,
STOPPOINT:02889,,"La Carrière - GILETTE","",43.84103,7.178992,,,0,,,
STOPPOINT:02890,,"Place Dr Morani - R - GILETTE","",43.849724,7.163578,,,0,,,
STOPPOINT:02891,,"Victoria - GRASSE","",43.663829,6.927605,,,0,,,
STOPPOINT:02892,,"La Pitchounette - GRASSE","",43.669124,6.940343,,,0,,,
STOPPOINT:02898,,"Mas de Provence - CHATNEUF-GRASSE","",43.664294,6.967205,,,0,,,
STOPPOINT:02899,,"Mas de Provence - CHATNEUF-GRASSE","",43.664204,6.967193,,,0,,,
STOPPOINT:02900,,"La Treille - CHATNEUF-GRASSE","",43.663631,6.963492,,,0,STOPAREA:01594,,
STOPPOINT:02902,,"Ecurie la Lande - CHATNEUF-GRASSE","",43.664309,6.972996,,,0,,,
STOPPOINT:02903,,"Ecurie la Lande - CHATNEUF-GRASSE","",43.664213,6.972909,,,0,,,
STOPPOINT:02904,,"Quarantier - CHATNEUF-GRASSE","",43.664569,6.976642,,,0,,,
STOPPOINT:02905,,"Quarantier - CHATNEUF-GRASSE","",43.6645,6.976754,,,0,,,
STOPPOINT:02906,,"Giratoire D'Opio - OPIO","",43.667946,6.983936,,,0,,,
STOPPOINT:02908,,"Gare SNCF - GRASSE","",43.653166,6.92536,,,0,STOPAREA:03707,,
STOPPOINT:02934,,"Giratoire D'Opio - OPIO","",43.667834,6.984123,,,0,,,
STOPPOINT:02939,,"Colline Des Puits - R - LE CANNET","",43.563601,6.965409,,,0,,,
STOPPOINT:02942,,"Plascassier Village - GRASSE","",43.64308,6.976073,,,0,,,
STOPPOINT:02953,,"Gilette - Le Musée - A - GILETTE","",43.8412,7.185944,,,0,,,
STOPPOINT:02954,,"Le Musée - GILETTE","",43.841507,7.185988,,,0,,,
STOPPOINT:02955,,"Gilette - Lou Chier - A - GILETTE","",43.838995,7.1812,,,0,,,
STOPPOINT:02956,,"Lou Chier - GILETTE","",43.837765,7.1813,,,0,,,
STOPPOINT:02959,,"Pra D'Astier - RIGAUD","",44.004354,6.991633,,,0,STOPAREA:03380,,
STOPPOINT:02960,,"Moulin De Rigaud - RIGAUD","",43.987117,7.000809,,,0,,,
STOPPOINT:02965,,"Office de Tourisme - BEUIL","",0.0,0.0,,,0,STOPAREA:01947,,
STOPPOINT:02966,,"Tête Du Sapet - PEONE-VALBERG","",0.0,0.0,,,0,STOPAREA:01951,,
STOPPOINT:02968,,"Guillaume - Le Plan - A - GUILLAUMES","",44.082612,6.855542,,,0,,,
STOPPOINT:02971,,"Queinières - TOURRETTES/LOUP","",43.710545,7.052962,,,0,,,
STOPPOINT:02972,,"Queinières - TOURRETTES/LOUP","",43.710085,7.051583,,,0,,,
STOPPOINT:02973,,"Lycée Jacques Dolle - ANTIBES","",43.592764,7.115306,,,0,STOPAREA:02161,,
STOPPOINT:02974,,"Lycée Horticole - ANTIBES","",43.597868,7.113637,,,0,STOPAREA:02161,,
STOPPOINT:02975,,"Léonard de Vinci - ANTIBES","",43.603927,7.072764,,,0,STOPAREA:02160,,
STOPPOINT:02979,,"Qui Va Bon - MOUGINS","",43.604785,7.001995,,,0,,,
STOPPOINT:02980,,"Qui Va Bon - MOUGINS","",43.605101,7.001958,,,0,,,
STOPPOINT:02987,,"Salle des Fêtes - BERRE-LES-ALPES","",43.83086,7.32722,,,0,STOPAREA:01611,,
STOPPOINT:02988,,"Chapelle - BERRE-LES-ALPES","",43.828828,7.33494,,,0,,,
STOPPOINT:02989,,"Chapelle - BERRE-LES-ALPES","",43.828724,7.335058,,,0,,,
STOPPOINT:02990,,"Bessi - BERRE-LES-ALPES","",43.827485,7.323408,,,0,,,
STOPPOINT:03000,,"La Manda GDF - NICE","",43.762073,7.203372,,,0,,,
STOPPOINT:03001,,"Rivoli - NICE","",43.696619,7.259118,,,0,,,
STOPPOINT:03003,,"La Vallière Promenade - NICE","",43.670766,7.223468,,,0,,,
STOPPOINT:03005,,"RN 7 Les Mouettes - R - S.LAURENT-D-VAR","",0.0,0.0,,,0,,,
STOPPOINT:03007,,"RN7 Vauban - S.LAURENT-D-VAR","",0.0,0.0,,,0,,,
STOPPOINT:03008,,"La Roseraie - CAGNES-SUR-MER","",43.658956,7.138326,,,0,,,
STOPPOINT:03009,,"La Roseraie - CAGNES-SUR-MER","",43.658844,7.138323,,,0,,,
STOPPOINT:03010,,"Le Tunnel - CAGNES-SUR-MER","",43.660128,7.130988,,,0,STOPAREA:00758,,
STOPPOINT:03011,,"Le Tunnel - CAGNES-SUR-MER","",43.660088,7.130765,,,0,STOPAREA:00758,,
STOPPOINT:03017,,"Les Vespins - A - CAGNES-SUR-MER","",43.660463,7.175451,,,0,STOPAREA:00756,,
STOPPOINT:03018,,"Les Vespins - R - CAGNES-SUR-MER","",0.0,0.0,,,0,,,
STOPPOINT:03019,,"Halte Routière l'Ara - VENCE","",43.722656,7.107328,,,0,STOPAREA:01669,,
STOPPOINT:03032,,"Promenade A. Passeron - PEILLON","",43.765478,7.347,,,0,,,
STOPPOINT:03037,,"Village - CARROS","",43.792392,7.185327,,,0,STOPAREA:01799,,
STOPPOINT:03038,,"Saint Joseph - CARROS","",43.789692,7.188481,,,0,,,
STOPPOINT:03039,,"Saint Joseph - CARROS","",43.788694,7.189447,,,0,,,
STOPPOINT:03044,,"Engeri - CARROS","",0.0,0.0,,,0,STOPAREA:02697,,
STOPPOINT:03045,,"Engeri - CARROS","",43.762878,7.1931,,,0,STOPAREA:02697,,
STOPPOINT:03052,,"Chemin du Braousch - TURBIE (LA)","",43.748367,7.387591,,,0,STOPAREA:00914,,
STOPPOINT:03053,,"Chemin de l'Esparaye - TURBIE (LA)","",43.747599,7.388786,,,0,,,
STOPPOINT:03060,,"Espace Aventure - PEONE-VALBERG","",0.0,0.0,,,0,,,
STOPPOINT:03061,,"Puget théliers Les Abattoirs - A - PUGET-THENIERS","",43.954473,6.900041,,,0,,,
STOPPOINT:03062,,"Mistral - NICE","",43.725175,7.252154,,,0,,,
STOPPOINT:03063,,"Mistral - NICE","",43.725311,7.252112,,,0,,,
STOPPOINT:03066,,"Goiran - NICE","",43.724842,7.249563,,,0,,,
STOPPOINT:03067,,"Goiran - NICE","",43.724043,7.24978,,,0,,,
STOPPOINT:03068,,"Deux Avenues - NICE","",43.71903,7.25231,,,0,,,
STOPPOINT:03069,,"Deux Avenues - NICE","",43.719568,7.251813,,,0,,,
STOPPOINT:03070,,"Cyrnos - NICE","",43.715698,7.253777,,,0,,,
STOPPOINT:03071,,"Cyrnos - NICE","",43.715172,7.253853,,,0,,,
STOPPOINT:03072,,"P.N. Gambetta - NICE","",43.710463,7.25603,,,0,,,
STOPPOINT:03073,,"P.N. Gambetta - NICE","",43.710351,7.255835,,,0,,,
STOPPOINT:03074,,"Vernier Gambetta - NICE","",0.0,0.0,,,0,,,
STOPPOINT:03075,,"Vernier Gambetta - NICE","",43.707306,7.255968,,,0,,,
STOPPOINT:03076,,"Thiers Gambetta - NICE","",0.0,0.0,,,0,,,
STOPPOINT:03077,,"Thiers Gambetta - NICE","",43.701294,7.256068,,,0,,,
STOPPOINT:03078,,"Alsace Lorraine - NICE","",0.0,0.0,,,0,,,
STOPPOINT:03079,,"Alsace Lorraine - NICE","",43.698048,7.256137,,,0,,,
STOPPOINT:03082,,"Les Templiers - BIOT","",43.617418,7.074033,,,0,,,
STOPPOINT:03083,,"Les Templiers - BIOT","",43.616886,7.073018,,,0,,,
STOPPOINT:03084,,"Albert Caquot - BIOT","",43.617,7.061328,,,0,STOPAREA:01707,,
STOPPOINT:03085,,"Albert Caquot - BIOT","",43.617046,7.060543,,,0,,,
STOPPOINT:03086,,"Les Bélugues - VALBONNE","",43.617712,7.05833,,,0,STOPAREA:01703,,
STOPPOINT:03088,,"La Bouillide - VALBONNE","",43.619746,7.055707,,,0,,,
STOPPOINT:03089,,"La Bouillide - VALBONNE","",43.619602,7.055657,,,0,STOPAREA:01702,,
STOPPOINT:03090,,"Les Bruscs - VALBONNE","",43.626986,7.053835,,,0,,,
STOPPOINT:03091,,"Les Bruscs - VALBONNE","",43.626952,7.053557,,,0,,,
STOPPOINT:03092,,"Les Cardoulines - VALBONNE","",43.625915,7.041468,,,0,,,
STOPPOINT:03093,,"Les Cardoulines - VALBONNE","",43.625825,7.042429,,,0,STOPAREA:01714,,
STOPPOINT:03094,,"Val Martin - VALBONNE","",43.623713,7.014363,,,0,,,
STOPPOINT:03095,,"Val Martin - VALBONNE","",43.623414,7.015136,,,0,STOPAREA:01708,,
STOPPOINT:03096,,"Peyniblou - VALBONNE","",43.623695,7.007706,,,0,,,
STOPPOINT:03097,,"Peyniblou - VALBONNE","",43.623527,7.007968,,,0,,,
STOPPOINT:03098,,"La Petite Ferme - VALBONNE","",43.623932,7.001108,,,0,STOPAREA:01702,,
STOPPOINT:03099,,"La Petite Ferme - VALBONNE","",43.623678,7.001896,,,0,STOPAREA:01702,,
STOPPOINT:03100,,"Les Fauvettes - VALBONNE","",43.625064,6.998992,,,0,STOPAREA:01708,,
STOPPOINT:03101,,"Les Fauvettes - VALBONNE","",43.624946,6.99876,,,0,,,
STOPPOINT:03102,,"La Carrière - VALBONNE","",43.63102,6.999457,,,0,,,
STOPPOINT:03103,,"La Carrière - VALBONNE","",43.630513,6.99905,,,0,,,
STOPPOINT:03104,,"Val de Cuberte - VALBONNE","",43.632866,7.000231,,,0,STOPAREA:03379,,
STOPPOINT:03105,,"Val de Cuberte - VALBONNE","",43.633377,7.000279,,,0,STOPAREA:03379,,
STOPPOINT:03106,,"Hauts de Valbonne - VALBONNE","",43.634994,7.002511,,,0,,,
STOPPOINT:03107,,"Hauts de Valbonne - VALBONNE","",43.63503,7.002337,,,0,,,
STOPPOINT:03108,,"Pont de la Brague - VALBONNE","",43.639228,7.005167,,,0,,,
STOPPOINT:03109,,"Pont de la Brague - VALBONNE","",43.639366,7.00514,,,0,,,
STOPPOINT:03110,,"Hôtel de Ville - VALBONNE","",43.64036,7.007195,,,0,STOPAREA:01708,,
STOPPOINT:03111,,"Hôtel de Ville - VALBONNE","",43.640483,7.007183,,,0,STOPAREA:01708,,
STOPPOINT:03159,,"Fontaine du Jarrier - BLAUSASC","",43.793395,7.352313,,,0,,,
STOPPOINT:03160,,"Fontaine du Jarrier - BLAUSASC","",43.793391,7.352142,,,0,STOPAREA:02622,,
STOPPOINT:03170,,"Terra Amata - A - NICE","",43.700206,7.288128,,,0,,,
STOPPOINT:03171,,"Terra Amata - NICE","",43.700829,7.289726,,,0,,,
STOPPOINT:03172,,"De Joly - NICE","",43.701905,7.293196,,,0,,,
STOPPOINT:03173,,"De Joly - NICE","",43.702184,7.293347,,,0,,,
STOPPOINT:03174,,"Urbain Bosio - NICE","",43.699739,7.293798,,,0,,,
STOPPOINT:03175,,"Moyenne Corniche - NICE","",43.698708,7.29562,,,0,,,
STOPPOINT:03176,,"Moyenne Corniche - NICE","",43.698909,7.295547,,,0,,,
STOPPOINT:03177,,"Fort Thaon - NICE","",43.69982,7.295908,,,0,,,
STOPPOINT:03178,,"L'Escale - NICE","",43.702251,7.297768,,,0,STOPAREA:00814,,
STOPPOINT:03181,,"Jardin Exotique - MONACO","",43.731826,7.413616,,,0,,,
STOPPOINT:03186,,"Spélugues Fairmont - MONACO","",43.740619,7.429497,,,0,,,
STOPPOINT:03189,,"Saint Aignan - NICE","",43.694717,7.293423,,,0,,,
STOPPOINT:03190,,"Saint Aignan - NICE","",43.694886,7.293462,,,0,,,
STOPPOINT:03192,,"Président - NICE","",43.693422,7.293092,,,0,,,
STOPPOINT:03193,,"Président - NICE","",43.692863,7.293241,,,0,,,
STOPPOINT:03196,,"Cap d'Ail Edmond's - CAP D'AIL","",43.723003,7.395869,,,0,,,
STOPPOINT:03198,,"Place Des Moulins - MONACO","",43.745367,7.429529,,,0,,,
STOPPOINT:03199,,"Spélugues Fairmont - MONACO","",43.740666,7.429322,,,0,,,
STOPPOINT:03200,,"Place Des Moulins - MONACO","",43.745384,7.429096,,,0,,,
STOPPOINT:03205,,"Marché (Carnolès) - ROQUEBRUNE - CA","",43.76484,7.482772,,,0,,,
STOPPOINT:03207,,"Roqueville - MONACO","",43.739426,7.422613,,,0,STOPAREA:00786,,
STOPPOINT:03208,,"Crémaillère - MONACO","",43.741159,7.42509,,,0,STOPAREA:00786,,
STOPPOINT:03210,,"SNCF Richelieu - GRASSE","",43.653689,6.925514,,,0,,,
STOPPOINT:03211,,"Tombarel/Fénelon - GRASSE","",43.655095,6.927404,,,0,,,
STOPPOINT:03212,,"Tombarel/Fénelon - GRASSE","",43.655185,6.927682,,,0,,,
STOPPOINT:03214,,"Roure - GRASSE","",43.657087,6.930625,,,0,,,
STOPPOINT:03215,,"Le Logis du Loup - VILLENEUVE-LBT","",43.6466,7.136605,,,0,STOPAREA:02106,,
STOPPOINT:03216,,"Palais De Justice - GRASSE","",43.656658,6.927714,,,0,,,
STOPPOINT:03217,,"Le Logis du Loup - VILLENEUVE-LBT","",43.648056,7.138173,,,0,STOPAREA:02106,,
STOPPOINT:03218,,"Les Phalènes - ANTIBES","",43.592714,7.120498,,,0,STOPAREA:00760,,
STOPPOINT:03219,,"Le Sud - GRASSE","",43.656082,6.9253,,,0,,,
STOPPOINT:03221,,"Le Sud - GRASSE","",43.65618,6.925245,,,0,STOPAREA:01598,,
STOPPOINT:03223,,"Antibes - Pole d'Echanges - ANTIBES","",43.586711,7.11906,,,0,STOPAREA:00559,,
STOPPOINT:03224,,"Bellaud - GRASSE","",43.656906,6.923164,,,0,,,
STOPPOINT:03225,,"Bellaud - R - GRASSE","",43.656919,6.923386,,,0,,,
STOPPOINT:03229,,"Fragonard - GRASSE","",43.657284,6.921804,,,0,,,
STOPPOINT:03230,,"Grasse Centre - GRASSE","",43.659753,6.922473,,,0,,,
STOPPOINT:03235,,"La Source - CANNES","",43.547327,7.047789,,,0,,,
STOPPOINT:03236,,"Gazagnaire - CANNES","",0.0,0.0,,,0,STOPAREA:00764,,
STOPPOINT:03238,,"Pont des Gabres - CANNES","",43.550559,7.030539,,,0,STOPAREA:03993,,
STOPPOINT:03239,,"Parking Bergerie - GOURDON","",43.721161,6.976941,,,0,STOPAREA:02237,,
STOPPOINT:03240,,"Parking Bergerie - GOURDON","",43.721328,6.976899,,,0,STOPAREA:02237,,
STOPPOINT:03244,,"Vauban G.R. - NICE","",43.708751,7.285881,,,0,STOPAREA:00814,,
STOPPOINT:03245,,"Gambetta - GRASSE","",43.660301,6.925452,,,0,,,
STOPPOINT:03246,,"Gambetta - R - GRASSE","",43.660462,6.925427,,,0,,,
STOPPOINT:03247,,"La Roque - GRASSE","",43.659592,6.925926,,,0,,,
STOPPOINT:03248,,"La Roque - R - GRASSE","",43.65953,6.92595,,,0,,,
STOPPOINT:03249,,"Les Pervenches - CANNES","",43.546391,7.043515,,,0,,,
STOPPOINT:03252,,"Schaumann (J. Ferry) - CANNES","",43.556654,7.01705,,,0,,,
STOPPOINT:03253,,"Schaumann (J. Ferry) - CANNES","",43.55664,7.01684,,,0,,,
STOPPOINT:03256,,"Frayère - R - CANNES","",43.559494,6.968104,,,0,STOPAREA:01880,,
STOPPOINT:03257,,"Dugommier - ANTIBES","",43.581021,7.119702,,,0,STOPAREA:00761,,
STOPPOINT:03264,,"Stade De La Paoûte - GRASSE","",43.632917,6.954153,,,0,,,
STOPPOINT:03266,,"France Outre Mer - S.LAURENT-D-VAR","",43.659163,7.191265,,,0,,,
STOPPOINT:03267,,"RN98 - S.LAURENT-D-VAR","",43.658087,7.185029,,,0,,,
STOPPOINT:03268,,"Surcouf - S.LAURENT-D-VAR","",43.657039,7.180448,,,0,STOPAREA:00756,,
STOPPOINT:03271,,"Mairie Annexe - VILLENEUVE-LBT","",43.642049,7.133537,,,0,,,
STOPPOINT:03272,,"Les Maurettes - VILLENEUVE-LBT","",43.630589,7.13025,,,0,STOPAREA:02106,,
STOPPOINT:03276,,"Les Drapeaux - VILLENEUVE-LBT","",43.64206,7.143141,,,0,,,
STOPPOINT:03279,,"Jean Moulin - A - CANNES","",43.565849,6.965088,,,0,,,
STOPPOINT:03280,,"Les Pins Bleus - A - CANNES","",43.571078,6.955268,,,0,,,
STOPPOINT:03281,,"Tiercé - CAGNES-SUR-MER","",43.651136,7.152073,,,0,STOPAREA:00758,,
STOPPOINT:03282,,"Les Pins Bleus - R - CANNES","",43.571336,6.95488,,,0,,,
STOPPOINT:03283,,"Verdun - S.LAURENT-D-VAR","",43.658743,7.191368,,,0,STOPAREA:00756,,
STOPPOINT:03284,,"Trotteur Plage - S.LAURENT-D-VAR","",43.65765,7.184806,,,0,STOPAREA:00756,,
STOPPOINT:03285,,"Maona Plage - S.LAURENT-D-VAR","",43.656535,7.179515,,,0,STOPAREA:00756,,
STOPPOINT:03287,,"Base De Loisirs - A - ROQUETTE/SIAGNE","",43.585027,6.941735,,,0,,,
STOPPOINT:03288,,"Base De Loisirs - R - ROQUETTE/SIAGNE","",43.584702,6.941624,,,0,,,
STOPPOINT:03291,,"Stade Perdigon - A - GRASSE","",43.636448,6.933449,,,0,,,
STOPPOINT:03292,,"Stade Perdigon - R - GRASSE","",43.636264,6.933107,,,0,,,
STOPPOINT:03295,,"RD PT De L'Alambic - A - GRASSE","",43.641558,6.937316,,,0,,,
STOPPOINT:03307,,"Médiathèque -A - CANNES","",0.0,0.0,,,0,,,
STOPPOINT:03308,,"Médiathèque -R - CANNES","",43.550765,7.002462,,,0,,,
STOPPOINT:03315,,"Saint Pierre - R - CANNES","",43.567151,6.966772,,,0,,,
STOPPOINT:03316,,"Alfred de Musset - A - CANNES","",43.569338,6.966183,,,0,,,
STOPPOINT:03317,,"Ranguin College Gerard Philippe - CANNES","",43.569816,6.965683,,,0,,,
STOPPOINT:03348,,"Les Plages - ROQUEBRUNE - CA","",43.759391,7.482839,,,0,,,
STOPPOINT:03359,,"Pont De L'Union - MENTON","",43.765879,7.486247,,,0,STOPAREA:03608,,
STOPPOINT:03360,,"Le Logis (610) - R - PEGOMAS","",43.592287,6.930813,,,0,,,
STOPPOINT:03361,,"Piéranchon - A - PEGOMAS","",43.60445,6.918034,,,0,,,
STOPPOINT:03362,,"Madone Parc - MENTON","",43.767724,7.489882,,,0,,,
STOPPOINT:03363,,"Madone Parc - MENTON","",43.769218,7.491614,,,0,STOPAREA:03608,,
STOPPOINT:03372,,"Guillaume Village - R - GUILLAUMES","",44.088851,6.853596,,,0,STOPAREA:01193,,
STOPPOINT:03409,,"St Josèph Carnolès - ROQUEBRUNE - CA","",43.765523,7.482506,,,0,,,
STOPPOINT:03444,,"Mairie - TURBIE (LA)","",43.745395,7.399678,,,0,STOPAREA:00914,,
STOPPOINT:03446,,"Nice - Robini - R - NICE","",43.681693,7.198743,,,0,,,
STOPPOINT:03447,,"Lingostière C.C. - A - NICE","",43.727685,7.18874,,,0,STOPAREA:01888,,
STOPPOINT:03449,,"Pont Saintt Martin - ST-MT-ENTRAUNES","",44.13684,6.766934,,,0,STOPAREA:03541,,
STOPPOINT:03450,,"La Chapelle - SIGALE","",43.873522,6.968986,,,0,,,
STOPPOINT:03452,,"Palais Nikaïa - NICE","",43.680554,7.199217,,,0,,,
STOPPOINT:03453,,"Santoline - NICE","",43.675398,7.20173,,,0,,,
STOPPOINT:03458,,"Gilette - Les Coteaux - A - GILETTE","",43.836865,7.188054,,,0,,,
STOPPOINT:03459,,"Les Coteaux - GILETTE","",43.837194,7.188302,,,0,,,
STOPPOINT:03461,,"Gilette - GILETTE","",43.851834,7.164288,,,0,STOPAREA:01908,,
STOPPOINT:03466,,"La Poste - GILETTE","",43.850964,7.163761,,,0,,,
STOPPOINT:03468,,"Revest - Collet Des Sausses - A - REVEST-LS-ROCHE","",43.866223,7.165063,,,0,,,
STOPPOINT:03469,,"Collet Des Sausses - REVEST-LS-ROCHE","",43.866333,7.164713,,,0,STOPAREA:01830,,
STOPPOINT:03486,,"La Garde Sud - BLAUSASC","",43.804662,7.356157,,,0,,,
STOPPOINT:03504,,"Enriez - ENRIEZ","",43.981561,6.758459,,,0,STOPAREA:01821,,
STOPPOINT:03505,,"Enriez - R - ENRIEZ","",43.982326,6.758833,,,0,STOPAREA:01821,,
STOPPOINT:03517,,"Tende - NICE","",43.711756,7.285355,,,0,,,
STOPPOINT:03518,,"Pont Vincent Auriol - NICE","",43.715094,7.282866,,,0,,,
STOPPOINT:03519,,"Pont Vincent Auriol - NICE","",43.716305,7.283186,,,0,,,
STOPPOINT:03520,,"Cité PLM - NICE","",43.71978,7.286726,,,0,,,
STOPPOINT:03521,,"Cité PLM - R - NICE","",43.719753,7.286331,,,0,,,
STOPPOINT:03522,,"La Chaumière - NICE","",43.730443,7.285542,,,0,,,
STOPPOINT:03523,,"La Chaumière - NICE","",43.730625,7.285291,,,0,,,
STOPPOINT:03524,,"Bon Voyage - NICE","",43.731731,7.289839,,,0,,,
STOPPOINT:03525,,"Bon Voyage - NICE","",43.731811,7.289785,,,0,STOPAREA:01538,,
STOPPOINT:03526,,"L'Oli - TRINITE (LA)","",43.735392,7.306349,,,0,,,
STOPPOINT:03527,,"La Nuit - TRINITE (LA)","",43.737551,7.309052,,,0,,,
STOPPOINT:03528,,"Sainte Anne - TRINITE (LA)","",43.738809,7.309957,,,0,,,
STOPPOINT:03529,,"Pont Anatole France - A - TRINITE (LA)","",43.740839,7.31111,,,0,,,
STOPPOINT:03530,,"Pont de l'Ariane - TRINITE (LA)","",43.734308,7.302675,,,0,,,
STOPPOINT:03531,,"L'Oli - TRINITE (LA)","",43.73539,7.306174,,,0,STOPAREA:00794,,
STOPPOINT:03532,,"La Nuit - TRINITE (LA)","",43.737532,7.308825,,,0,,,
STOPPOINT:03533,,"Sainte Anne - TRINITE (LA)","",43.73886,7.309861,,,0,,,
STOPPOINT:03534,,"Route de Laghet - TRINITE (LA)","",43.741312,7.311519,,,0,STOPAREA:00794,,
STOPPOINT:03535,,"Sanctuaire - TRINITE (LA)","",43.753083,7.382671,,,0,,,
STOPPOINT:03536,,"Sanctuaire - TRINITE (LA)","",43.753368,7.382531,,,0,,,
STOPPOINT:03537,,"Eganaude - BIOT","",43.623054,7.057799,,,0,STOPAREA:01714,,
STOPPOINT:03538,,"I.U.P. de Sophia - BIOT","",43.620966,7.061179,,,0,,,
STOPPOINT:03548,,"Square Bourdet - CAGNES-SUR-MER","",0.0,0.0,,,0,,,
STOPPOINT:03549,,"Riba Roussa - NICE","",43.733273,7.295218,,,0,,,
STOPPOINT:03550,,"Parc A Fourrage - NICE","",43.72709,7.28522,,,0,,,
STOPPOINT:03552,,"René Dunan (Muriers) - A - CANNES","",43.551654,6.966047,,,0,,,
STOPPOINT:03554,,"René Dunan (Muriers) - R - CANNES","",43.551841,6.966043,,,0,STOPAREA:03993,,
STOPPOINT:03556,,"XVème Corps - NICE","",43.706254,7.281183,,,0,,,
STOPPOINT:03560,,"Bocca Formapole - R - CANNES","",43.554768,6.96655,,,0,,,
STOPPOINT:03561,,"Bocca Formapole - A - CANNES","",43.554585,6.966529,,,0,,,
STOPPOINT:03562,,"les pompiers - A - CANNES","",43.555614,6.967561,,,0,,,
STOPPOINT:03563,,"les pompiers - R - CANNES","",43.555889,6.967584,,,0,,,
STOPPOINT:03565,,"Bocca Nord - R - CANNES","",43.558292,6.968402,,,0,,,
STOPPOINT:03567,,"CEG G. Philippe - A - CANNES","",43.570432,6.962571,,,0,STOPAREA:03993,,
STOPPOINT:03568,,"Alfred de Musset - R - CANNES","",43.569803,6.965601,,,0,,,
STOPPOINT:03570,,"Saint Pierre - A - CANNES","",43.568056,6.967099,,,0,,,
STOPPOINT:03571,,"Amaryllis - CANNES","",43.570881,6.960083,,,0,STOPAREA:01880,,
STOPPOINT:03572,,"Amaryllis - CANNES","",43.570716,6.960032,,,0,,,
STOPPOINT:03573,,"Chemin De Pourcel - ROQUETTE/SIAGNE","",43.574566,6.959845,,,0,STOPAREA:02813,,
STOPPOINT:03574,,"Ecole Vieille - ROQUETTE/SIAGNE","",43.577273,6.959724,,,0,,,
STOPPOINT:03575,,"Ecole Vieille - ROQUETTE/SIAGNE","",43.577415,6.959583,,,0,,,
STOPPOINT:03576,,"Courguettes - ROQUETTE/SIAGNE","",43.581162,6.959093,,,0,,,
STOPPOINT:03577,,"Courguettes - ROQUETTE/SIAGNE","",43.580789,6.959175,,,0,,,
STOPPOINT:03578,,"La Caillenque - ROQUETTE/SIAGNE","",43.587446,6.957053,,,0,,,
STOPPOINT:03579,,"La Caillenque - ROQUETTE/SIAGNE","",43.587946,6.956875,,,0,,,
STOPPOINT:03580,,"Colle Des Juges - ROQUETTE/SIAGNE","",43.590736,6.957301,,,0,,,
STOPPOINT:03581,,"Colle Des Juges - ROQUETTE/SIAGNE","",43.591097,6.957102,,,0,,,
STOPPOINT:03582,,"Les Canebiers - ROQUETTE/SIAGNE","",43.595191,6.956275,,,0,,,
STOPPOINT:03583,,"La Roquette Bas - ROQUETTE/SIAGNE","",43.597215,6.954621,,,0,,,
STOPPOINT:03584,,"La Roquette Bas - ROQUETTE/SIAGNE","",43.597014,6.954576,,,0,,,
STOPPOINT:03585,,"Saint Jean - A - CANNES","",43.549664,6.974544,,,0,,,
STOPPOINT:03586,,"Saint Jean - R - CANNES","",43.549585,6.974895,,,0,,,
STOPPOINT:03587,,"Moulin de la Gaieté - A - CANNES","",43.549891,6.971062,,,0,,,
STOPPOINT:03588,,"Moulin de la Gaieté - R - CANNES","",43.549703,6.971459,,,0,,,
STOPPOINT:03590,,"Parking Coubertin - R - CANNES","",43.553656,6.965917,,,0,,,
STOPPOINT:03591,,"Hôtel De Ville - ROQUETTE/SIAGNE","",43.580596,6.956208,,,0,,,
STOPPOINT:03592,,"Hôtel De Ville - ROQUETTE/SIAGNE","",43.580681,6.956074,,,0,,,
STOPPOINT:03597,,"La Marigarde - GRASSE","",43.655219,6.940732,,,0,STOPAREA:01598,,
STOPPOINT:03598,,"La Marigarde - GRASSE","",43.655279,6.940402,,,0,,,
STOPPOINT:03599,,"ZI Du Carré - GRASSE","",43.654236,6.932845,,,0,,,
STOPPOINT:03600,,"ZI Du Carré - GRASSE","",43.65435,6.932668,,,0,,,
STOPPOINT:03601,,"Capucins Bas - GRASSE","",43.653699,6.927497,,,0,,,
STOPPOINT:03602,,"Capucins Bas - GRASSE","",43.653791,6.927434,,,0,,,
STOPPOINT:03603,,"Cercle St Mathieu - GRASSE","",43.659694,6.952906,,,0,STOPAREA:01598,,
STOPPOINT:03607,,"Les Chappes - BIOT","",43.615272,7.080036,,,0,STOPAREA:01707,,
STOPPOINT:03609,,"Les Chappes - BIOT","",43.615021,7.08006,,,0,STOPAREA:01707,,
STOPPOINT:03610,,"INRIA - BIOT","",43.616475,7.068106,,,0,,,
STOPPOINT:03611,,"INRIA - BIOT","",43.61649,7.068612,,,0,,,
STOPPOINT:03612,,"Eganaude - BIOT","",43.622919,7.057646,,,0,,,
STOPPOINT:03613,,"Centre Commercial - S.LAURENT-D-VAR","",43.659212,7.195391,,,0,STOPAREA:00756,,
STOPPOINT:03614,,"Les Genêts - VALBONNE","",43.624404,7.031793,,,0,,,
STOPPOINT:03617,,"l'Eglise - CAGNES-SUR-MER","",43.662192,7.150727,,,0,,,
STOPPOINT:03618,,"Mairie Annexe - VILLENEUVE-LBT","",43.642353,7.134324,,,0,STOPAREA:02106,,
STOPPOINT:03620,,"Sea Club Méridien - MONACO","",43.748171,7.435042,,,0,,,
STOPPOINT:03622,,"Emile Hugues (Abribus) - VENCE","",43.710801,7.125723,,,0,,,
STOPPOINT:03623,,"Parc Icard - VILLENEUVE-LBT","",43.662239,7.11979,,,0,STOPAREA:02106,,
STOPPOINT:03624,,"Saint Georges - VILLENEUVE-LBT","",43.659705,7.12003,,,0,,,
STOPPOINT:03627,,"Parc Icard - VILLENEUVE-LBT","",43.662101,7.119756,,,0,STOPAREA:02106,,
STOPPOINT:03628,,"Saint Georges - VILLENEUVE-LBT","",43.659414,7.120123,,,0,,,
STOPPOINT:03633,,"Moulin De Brun - GRASSE","",43.653268,6.945397,,,0,STOPAREA:02154,,
STOPPOINT:03634,,"Moulin De Brun - GRASSE","",43.65409,6.94384,,,0,STOPAREA:02154,,
STOPPOINT:03635,,"Les Poissonniers - GRASSE","",43.654198,6.937892,,,0,,,
STOPPOINT:03636,,"Les Poissonniers - GRASSE","",43.654424,6.937912,,,0,,,
STOPPOINT:03637,,"Le Canal - GRASSE","",43.653738,6.935028,,,0,,,
STOPPOINT:03638,,"Le Canal - GRASSE","",43.653921,6.934762,,,0,,,
STOPPOINT:03639,,"Les Floralies - GRASSE","",43.654102,6.9307,,,0,,,
STOPPOINT:03640,,"Les Floralies - GRASSE","",43.654234,6.930988,,,0,,,
STOPPOINT:03642,,"Sainte Marthe - GRASSE","",43.65764,6.927775,,,0,,,
STOPPOINT:03643,,"Crouet - GRASSE","",43.656705,6.924127,,,0,,,
STOPPOINT:03644,,"Victoria - GRASSE","",43.663682,6.927506,,,0,STOPAREA:02670,,
STOPPOINT:03648,,"Rastigny - GRASSE","",43.654309,6.921068,,,0,,,
STOPPOINT:03649,,"Pont Michel - NICE","",43.72262,7.289911,,,0,,,
STOPPOINT:03651,,"Espace Aventure - PEONE-VALBERG","",0.0,0.0,,,0,,,
STOPPOINT:03685,,"Antibes - Porte Marine - ANTIBES","",43.583906,7.126381,,,0,,,
STOPPOINT:03697,,"Portier - MONACO","",43.74153,7.430518,,,0,,,
STOPPOINT:03698,,"Portier - MONACO","",43.741475,7.429928,,,0,,,
STOPPOINT:03699,,"Larvotto Bay Hôtel - MONACO","",43.74958,7.439113,,,0,,,
STOPPOINT:03700,,"Larvotto Bay Hôtel - MONACO","",43.749459,7.438727,,,0,,,
STOPPOINT:03703,,"Le verger - ESCARENE (L')","",43.829475,7.366793,,,0,,,
STOPPOINT:03708,,"Carros - Le Beilouno - R - CARROS","",43.776308,7.190499,,,0,,,
STOPPOINT:03709,,"Carros - l'Aspre - A - CARROS","",43.774091,7.191066,,,0,STOPAREA:01763,,
STOPPOINT:03710,,"Médiathèque - CARROS","",0.0,0.0,,,0,,,
STOPPOINT:03711,,"Carros Pagnol - R - CARROS","",43.778702,7.18752,,,0,,,
STOPPOINT:03712,,"Carros - Saint Paul - A - CARROS","",0.0,0.0,,,0,,,
STOPPOINT:03713,,"Carros - Langevin - R - CARROS","",43.768388,7.19713,,,0,,,
STOPPOINT:03714,,"Carros - Stade de Tennis - R - CARROS","",43.766907,7.200299,,,0,STOPAREA:01882,,
STOPPOINT:03745,,"L'Eglise - TRINITE (LA)","",43.743823,7.313932,,,0,,,
STOPPOINT:03746,,"La Garde Sud - BLAUSASC","",43.804471,7.355998,,,0,,,
STOPPOINT:03747,,"Collège Rabelais - ESCARENE (L')","",43.840024,7.352584,,,0,,,
STOPPOINT:03748,,"Place De La République - LUCERAM","",43.881603,7.358643,,,0,,,
STOPPOINT:03749,,"Les Pompiers - LUCERAM","",43.880588,7.355691,,,0,,,
STOPPOINT:03750,,"Parc A Fourrage - NICE","",43.72637,7.286174,,,0,,,
STOPPOINT:03751,,"Riba Roussa - NICE","",43.733264,7.294658,,,0,,,
STOPPOINT:03756,,"Pont du Serre - ESCARENE (L')","",43.834116,7.35735,,,0,STOPAREA:02654,,
STOPPOINT:03757,,"Place Camous - ESCARENE (L')","",43.834514,7.354479,,,0,,,
STOPPOINT:03762,,"Relais Sartoux - GRASSE","",43.640885,6.983789,,,0,,,
STOPPOINT:03763,,"Relais Sartoux - GRASSE","",43.640855,6.983548,,,0,,,
STOPPOINT:03764,,"Cimetière Plascassier - GRASSE","",43.641041,6.985746,,,0,,,
STOPPOINT:03765,,"Cimetière Plascassier - GRASSE","",43.641116,6.985685,,,0,,,
STOPPOINT:03768,,"Les Etains - CHATNEUF-GRASSE","",43.640188,6.993932,,,0,STOPAREA:02159,,
STOPPOINT:03770,,"Le Riou - CHATNEUF-GRASSE","",43.641786,6.99875,,,0,,,
STOPPOINT:03771,,"Le Riou - CHATNEUF-GRASSE","",43.641786,6.99875,,,0,STOPAREA:01708,,
STOPPOINT:03772,,"Village - VALBONNE","",43.64265,7.007113,,,0,STOPAREA:01708,,
STOPPOINT:03812,,"La Ferrage - R - CANNES","",43.553277,7.013486,,,0,,,
STOPPOINT:03813,,"Pont Carnot - R - CANNES","",43.553676,7.016359,,,0,STOPAREA:03993,,
STOPPOINT:03833,,"Chez Robert - GRASSE","",43.639859,6.975375,,,0,,,
STOPPOINT:03835,,"Carignan - GRASSE","",43.644377,6.977983,,,0,,,
STOPPOINT:03836,,"Les Lavandières - GRASSE","",43.641528,6.979758,,,0,,,
STOPPOINT:03838,,"Plascassier Village - GRASSE","",43.643125,6.976087,,,0,,,
STOPPOINT:03840,,"Espace Chiris - GRASSE","",43.657438,6.928182,,,0,,,
STOPPOINT:03841,,"La Provence - GRASSE","",43.65643,6.925557,,,0,,,
STOPPOINT:03864,,"Mairie - TURBIE (LA)","",43.745217,7.399758,,,0,STOPAREA:00914,,
STOPPOINT:03869,,"Place Ste Dévote (SNCF) - MONACO","",43.736735,7.421042,,,0,,,
STOPPOINT:03870,,"Princesse Antoinette (SNCF) - MONACO","",43.735599,7.421302,,,0,,,
STOPPOINT:03872,,"Jardin Exotique - MONACO","",43.731856,7.413389,,,0,,,
STOPPOINT:03908,,"Frédéric Mistral - LE CANNET","",43.568482,7.016517,,,0,STOPAREA:01682,,
STOPPOINT:03909,,"Frédéric Mistral - LE CANNET","",43.568775,7.016285,,,0,,,
STOPPOINT:03910,,"Hôtel Des Impôts - LE CANNET","",43.573458,7.012381,,,0,,,
STOPPOINT:03916,,"Les Campelières - MOUGINS","",43.58166,7.010029,,,0,,,
STOPPOINT:03918,,"Chemin De Belvédère - MOUGINS","",43.587327,7.004595,,,0,,,
STOPPOINT:03920,,"Notre Dame De Vie - MOUGINS","",43.591856,7.002432,,,0,,,
STOPPOINT:03921,,"Notre Dame De Vie - MOUGINS","",43.591831,7.002282,,,0,,,
STOPPOINT:03922,,"L'Orangeraie - MOUGINS","",43.59744,7.002384,,,0,,,
STOPPOINT:03923,,"L'Orangeraie - MOUGINS","",43.597387,7.002232,,,0,,,
STOPPOINT:03925,,"Clos Des Boyères - MOUGINS","",43.600672,7.00366,,,0,,,
STOPPOINT:03926,,"Clos Des Boyères - MOUGINS","",43.600835,7.003349,,,0,,,
STOPPOINT:03927,,"Saint Basile - MOUGINS","",43.604634,7.006937,,,0,,,
STOPPOINT:03928,,"Saint Basile - MOUGINS","",43.604777,7.00714,,,0,,,
STOPPOINT:03931,,"Clinique L'Espérance - MOUGINS","",43.610216,7.011546,,,0,STOPAREA:01874,,
STOPPOINT:03932,,"Clinique L'Espérance - MOUGINS","",43.609682,7.010753,,,0,,,
STOPPOINT:03960,,"Mougins School - MOUGINS","",43.611696,7.013404,,,0,,,
STOPPOINT:03961,,"Mougins School - MOUGINS","",43.612429,7.015287,,,0,,,
STOPPOINT:03966,,"Les Genêts - VALBONNE","",43.624404,7.031793,,,0,STOPAREA:01702,,
STOPPOINT:03968,,"Les Lentisques - MOUGINS","",43.611643,7.007987,,,0,,,
STOPPOINT:03969,,"Les Lentisques - MOUGINS","",43.61117,7.008062,,,0,STOPAREA:01708,,
STOPPOINT:03970,,"Beethoven - VALBONNE","",43.615494,7.056266,,,0,,,
STOPPOINT:03971,,"Albert Einstein - VALBONNE","",43.617831,7.052338,,,0,,,
STOPPOINT:03972,,"Les Lucioles - VALBONNE","",43.616087,7.049001,,,0,,,
STOPPOINT:03986,,"Chemin Du Fassun - MOUGINS","",43.595861,6.989783,,,0,,,
STOPPOINT:03987,,"Chemin Du Fassun - MOUGINS","",43.595833,6.990114,,,0,STOPAREA:01874,,
STOPPOINT:03988,,"Courteline - MOUGINS","",43.598038,6.99592,,,0,,,
STOPPOINT:03989,,"Village - MOUGINS","",43.601066,6.997517,,,0,,,
STOPPOINT:03990,,"Village - MOUGINS","",43.600832,6.996569,,,0,,,
STOPPOINT:03991,,"Moulin De La Croix - MOUGINS","",43.604646,6.999487,,,0,,,
STOPPOINT:03992,,"Moulin De La Croix - MOUGINS","",43.604646,6.999487,,,0,,,
STOPPOINT:03995,,"I.U.P. de Sophia - BIOT","",43.620856,7.061277,,,0,STOPAREA:01713,,
STOPPOINT:03996,,"I.U.T. - BIOT","",43.617118,7.070462,,,0,STOPAREA:01713,,
STOPPOINT:04017,,"Andrio - PEILLE","",0.0,0.0,,,0,,,
STOPPOINT:04023,,"Le Moulin Neuf - PEILLE","",43.797113,7.38187,,,0,,,
STOPPOINT:04031,,"Mairie Annexe - PEILLE","",43.796288,7.379325,,,0,,,
STOPPOINT:04039,,"Mirasol - CONTES","",43.814247,7.338089,,,0,,,
STOPPOINT:04042,,"Les Genets - CONTES","",43.80551,7.333929,,,0,,,
STOPPOINT:04043,,"Chemin de l'Euze - CONTES","",43.803903,7.329907,,,0,,,
STOPPOINT:04044,,"Les Mouchettes - CONTES","",43.803242,7.325606,,,0,,,
STOPPOINT:04048,,"Chemin de Mézin - CONTES","",43.81295,7.341944,,,0,,,
STOPPOINT:04059,,"La Blancarde - ESCARENE (L')","",43.815944,7.356632,,,0,,,
STOPPOINT:04114,,"Les Mouchettes - CONTES","",43.803492,7.326068,,,0,,,
STOPPOINT:04115,,"Chemin de l'Euze - CONTES","",43.803673,7.329351,,,0,,,
STOPPOINT:04116,,"Les Genets - CONTES","",43.805713,7.333912,,,0,,,
STOPPOINT:04117,,"La Vernéa - CONTES","",43.805516,7.336076,,,0,,,
STOPPOINT:04118,,"Mirasol - CONTES","",43.81415,7.338432,,,0,STOPAREA:01541,,
STOPPOINT:04121,,"Les Moulins - BENDEJUN","",43.831988,7.299627,,,0,STOPAREA:03138,,
STOPPOINT:04122,,"Les Moulins - BENDEJUN","",43.831988,7.299627,,,0,STOPAREA:03138,,
STOPPOINT:04125,,"Pinéa - BENDEJUN","",0.0,0.0,,,0,STOPAREA:01555,,
STOPPOINT:04126,,"Pinéa - BENDEJUN","",0.0,0.0,,,0,STOPAREA:01555,,
STOPPOINT:04133,,"Corniche Benard 4 - MOUANS SARTOUX","",43.628879,6.975388,,,0,,,
STOPPOINT:04135,,"La Poste - VALLAURIS","",43.568586,7.072477,,,0,,,
STOPPOINT:04188,,"Parc Phoenix - NICE","",43.669435,7.219092,,,0,,,
STOPPOINT:04190,,"Nice - jean bouin - A - NICE","",43.708087,7.281706,,,0,,,
STOPPOINT:04191,,"Nice - jean bouin - R - NICE","",43.708147,7.28047,,,0,,,
STOPPOINT:1,,"Origine TAD - COMMUNE HR DEPT","",0.0,0.0,,,0,STOPAREA:3,,
STOPPOINT:2,,"Destination TAD - COMMUNE HR DEPT","",0.0,0.0,,,0,STOPAREA:4,,
